[{"lat":"33.8157805","lng":"-84.3332624","id":260171,"name":"Whole Foods Market","phone":"404-634-7800","address":"2111 Briarcliff Rd","country":"US","state":"GA","city":"Atlanta","postal":"30329"},{"lat":"35.6018958","lng":"-82.5546267","id":260172,"name":"Whole Foods Market","phone":"828-254-5440","address":"70 Merrimon Ave","country":"US","state":"NC","city":"Asheville","postal":"28801"},{"lat":"35.7374587","lng":"-78.777314","id":260173,"name":"Whole Foods Market","phone":"919-816-8830","address":"B 102 New Waverly Place","country":"US","state":"NC","city":"Cary","postal":"27518"},{"lat":"32.8024308","lng":"-79.8891111","id":260174,"name":"Whole Foods Market","phone":"843-971-7240","address":"923 Houston Northcutt Blvd","country":"US","state":"SC","city":"Mount Pleasant","postal":"29464"},{"lat":"35.9344591","lng":"-79.0277503","id":260175,"name":"Whole Foods Market","phone":"919-968-1983","address":"81 South Elliott","country":"US","state":"NC","city":"Chapel Hill","postal":"27514"},{"lat":"35.0620044","lng":"-85.3157206","id":260176,"name":"Whole Foods Market","phone":"423-702-7300","address":"301 Manufacturer's Rd","country":"US","state":"TN","city":"Chattanooga","postal":"37405"},{"lat":"33.9481938","lng":"-84.5132683","id":260177,"name":"Whole Foods Market","phone":"770-578-4400","address":"70 Powers Ferry Rd SE","country":"US","state":"GA","city":"Marietta","postal":"30067"},{"lat":"36.0070981","lng":"-78.9207011","id":260178,"name":"Whole Foods Market","phone":"919-286-2290","address":"621 Broad St","country":"US","state":"NC","city":"Durham","postal":"27705"},{"lat":"34.0131757","lng":"-84.1836071","id":260179,"name":"Whole Foods Market","phone":"678-514-2400","address":"5945 State Bridge Rd","country":"US","state":"GA","city":"Duluth","postal":"30096"},{"lat":"36.1027751","lng":"-86.816744","id":260180,"name":"Whole Foods Market","phone":"615-440-5100","address":"4039 Hillsboro Rd","country":"US","state":"TN","city":"Nashville","postal":"37215"},{"lat":"33.4601137","lng":"-86.7525805","id":260181,"name":"Whole Foods Market","phone":"205-912-8400","address":"3100 Cahaba Village Plaza","country":"US","state":"AL","city":"Mountain Brook","postal":"35243"},{"lat":"33.7750062","lng":"-84.3658378","id":260182,"name":"Whole Foods Market","phone":"404-853-1681","address":"650 Ponce De Leon Ave NE","country":"US","state":"GA","city":"Atlanta","postal":"30308"},{"lat":"35.8024217","lng":"-78.6863264","id":260183,"name":"Whole Foods Market","phone":"919-828-6071","address":"3540  Wade Ave","country":"US","state":"NC","city":"Raleigh","postal":"27607"},{"lat":"33.9177523","lng":"-84.3798535","id":260184,"name":"Whole Foods Market","phone":"404-236-0810","address":"5930 Roswell Rd","country":"US","state":"GA","city":"Atlanta","postal":"30328"},{"lat":"34.8258121","lng":"-82.3010026","id":260185,"name":"Whole Foods Market","phone":"864-335-2305","address":"1140 Woodruff Rd, Ste 200","country":"US","state":"SC","city":"Greenville","postal":"29607"},{"lat":"36.0943163","lng":"-80.2736693","id":260186,"name":"Whole Foods Market","phone":"336-722-9233","address":"41 Miller St","country":"US","state":"NC","city":"Winston-Salem","postal":"27104"},{"lat":"35.9342039","lng":"-86.8249494","id":260187,"name":"Whole Foods Market","phone":"615-550-5660","address":"1566 West McEwen Dr","country":"US","state":"TN","city":"Franklin","postal":"37067"},{"lat":"35.8993151","lng":"-78.650322","id":260188,"name":"Whole Foods Market","phone":"919-354-0350","address":"8710 Six Forks Rd","country":"US","state":"NC","city":"Raleigh","postal":"27615"},{"lat":"33.9926126","lng":"-80.9753454","id":260189,"name":"Whole Foods Market","phone":"803-509-6700","address":"702 Cross Hill Rd, Ste 300","country":"US","state":"SC","city":"Columbia","postal":"29205"},{"lat":"36.085865","lng":"-79.8342543","id":260190,"name":"Whole Foods Market","phone":"336-398-2880","address":"3202 W Friendly Ave","country":"US","state":"NC","city":"Greensboro","postal":"27408"},{"lat":"33.8399495","lng":"-84.3812892","id":260191,"name":"Whole Foods Market","phone":"404-324-4100","address":"43 West Paces Ferry Rd NW","country":"US","state":"GA","city":"Atlanta","postal":"30305"},{"lat":"34.2136868","lng":"-77.9008","id":260192,"name":"Whole Foods Market","phone":"910-777-2499","address":"3804 Oleander Dr","country":"US","state":"NC","city":"Wilmington","postal":"28403"},{"lat":"35.147436","lng":"-80.8303304","id":260193,"name":"Whole Foods Market","address":"6610 Fairview Rd","country":"US","state":"NC","city":"Charlotte","postal":"28210"},{"lat":"32.0433386","lng":"-81.0719269","id":260194,"name":"Whole Foods Market","phone":"912-358-5829","address":"1815 East Victory Drive Suite 101","country":"US","state":"GA","city":"Savannah","postal":"31404"},{"lat":"35.1133773","lng":"-89.8940977","id":260195,"name":"Whole Foods Market","phone":"901-969-4368","address":"5014 Poplar Ave","country":"US","state":"TN","city":"Memphis","postal":"38117"},{"lat":"32.3555087","lng":"-90.1509014","id":260196,"name":"Whole Foods Market","phone":"601-608-0405","address":"4500 I-55 NORTH","country":"US","state":"MS","city":"Jackson","postal":"39211"},{"lat":"32.1864461","lng":"-80.717952","id":260197,"name":"Whole Foods Market","phone":"843-842-0700","address":"50 Shelter Cove Lane, Suite R","country":"US","state":"SC","city":"Hilton Head Island","postal":"29928"},{"lat":"35.5828516","lng":"-82.5250484","id":260198,"name":"Whole Foods Market","address":"4 S. Tunnel Rd.  Suite 100","country":"US","state":"NC","city":"Asheville","postal":"28805"},{"lat":"33.5114666","lng":"-82.0388568","id":260199,"name":"Whole Foods Market","phone":"762-333-0260","address":"2907 Washington Rd","country":"US","state":"GA","city":"AUGUSTA","postal":"30909"},{"lat":"34.0688893","lng":"-84.2788674","id":260200,"name":"Whole Foods Market","phone":"678-534-3138","address":"2800 Old Milton Pkwy","country":"US","state":"GA","city":"ALPHARETTA","postal":"30009"},{"lat":"35.4440196","lng":"-80.8715577","id":260201,"name":"Whole Foods Market","phone":"704-765-3735","address":"9129 Sam Furr Rd","country":"US","state":"NC","city":"Huntersville","postal":"28078"},{"lat":"33.9804759","lng":"-84.4279467","id":260202,"name":"Whole Foods Market","phone":"678-996-9700","address":"1311 Johnson Ferry Rd- NE","country":"US","state":"GA","city":"Marietta","postal":"30068"},{"lat":"35.9331474","lng":"-84.0154703","id":260203,"name":"Whole Foods Market","phone":"865-291-6400","address":"6730 Papermill Dr","country":"US","state":"TN","city":"Knoxville","postal":"37919"},{"lat":"35.0896229","lng":"-89.8024395","id":260204,"name":"Whole Foods Market","phone":"901-896-3245","address":"7825 U.S. Highway 72 ","country":"US","state":"TN","city":"Germantown","postal":"38138"},{"lat":"30.6771889","lng":"-88.1510459","id":260205,"name":"Whole Foods Market","phone":"251-206-7028","address":"3968 Airport Blvd","country":"US","state":"AL","city":"Mobile","postal":"36608"},{"lat":"34.6967104","lng":"-86.5833368","id":260206,"name":"Whole Foods Market","phone":"256-801-3741","address":"2501 Memorial Pkwy SW","country":"US","state":"AL","city":"Huntsville","postal":"35801"},{"lat":"42.6609421","lng":"-71.1440448","id":260207,"name":"Whole Foods Market","phone":"978-749-6664","address":"40 RailRd St","country":"US","state":"MA","city":"Andover","postal":"1810"},{"lat":"42.4909409","lng":"-71.272793","id":260208,"name":"Whole Foods Market","phone":"781-275-8264","address":"170 Gread Rd","country":"US","state":"MA","city":"Bedford","postal":"1730"},{"lat":"42.3428962","lng":"-71.1404764","id":260209,"name":"Whole Foods Market","phone":"617-738-8187","address":"15 Washington St","country":"US","state":"MA","city":"Brighton","postal":"2135"},{"lat":"42.2304285","lng":"-71.1759463","id":260210,"name":"Whole Foods Market","phone":"781-329-7100","address":"950 Providence Hwy","country":"US","state":"MA","city":"Dedham","postal":"2026"},{"lat":"42.2985466","lng":"-71.4210026","id":260211,"name":"Whole Foods Market","phone":"508-628-9525","address":"575 Worcester Rd","country":"US","state":"MA","city":"Framingham","postal":"1701"},{"lat":"42.3639164","lng":"-72.5377324","id":260212,"name":"Whole Foods Market","phone":"413-586-9932","address":"Rt 9 Russell St","country":"US","state":"MA","city":"Hadley","postal":"1035"},{"lat":"42.1775627","lng":"-70.9095583","id":260213,"name":"Whole Foods Market","phone":"781-741-8050","address":"94 Derby Street, Ste 200","country":"US","state":"MA","city":"Hingham","postal":"2043"},{"lat":"42.4170089","lng":"-71.1266434","id":260214,"name":"Whole Foods Market","phone":"781-395-4998","address":"2151 Mystic Valley Pkwy","country":"US","state":"MA","city":"Medford","postal":"2155"},{"lat":"42.3300173","lng":"-71.2064193","id":260215,"name":"Whole Foods Market","phone":"617-969-1141","address":"916 Walnut St","country":"US","state":"MA","city":"Newton","postal":"2461"},{"lat":"42.3541273","lng":"-71.2000765","id":260216,"name":"Whole Foods Market","phone":"617-965-2070","address":"647 Washington St","country":"US","state":"MA","city":"Newtonville","postal":"2458"},{"lat":"43.6634469","lng":"-70.2594451","id":260217,"name":"Whole Foods Market","phone":"207-761-0658","address":"2 Somerset St","country":"US","state":"ME","city":"Portland","postal":"4010"},{"lat":"42.376014","lng":"-71.1029087","id":260218,"name":"Whole Foods Market","phone":"617-902-9300","address":"45 Beacon St","country":"US","state":"MA","city":"Somerville","postal":"1243"},{"lat":"42.3755995","lng":"-71.0661905","id":260219,"name":"Whole Foods Market","phone":"617-337-9700","address":"51 Austin Street","country":"US","state":"MA","city":"Charlestown","postal":"2129"},{"lat":"42.1716215","lng":"-70.9530417","id":260220,"name":"Whole Foods Market","phone":"781-277-5200","address":"35 Pleasant St","country":"US","state":"MA","city":"South Weymouth","postal":"2190"},{"lat":"42.3438262","lng":"-71.0873163","id":260221,"name":"Whole Foods Market","phone":"617-375-1010","address":"15 Westland Ave","country":"US","state":"MA","city":"Boston","postal":"2115"},{"lat":"42.4649623","lng":"-71.0625976","id":260222,"name":"Whole Foods Market","phone":"781-606-3400","address":"880 Main St","country":"US","state":"MA","city":"Melrose","postal":"2176"},{"lat":"42.5150852","lng":"-71.0296662","id":260223,"name":"Whole Foods Market","phone":"781-776-4300","address":"100 Market St","country":"US","state":"MA","city":"Lynnfield","postal":"1940"},{"lat":"42.416306","lng":"-71.1594531","id":260224,"name":"Whole Foods Market","phone":"781-777-7200","address":"808 Massachusetts Ave ","country":"US","state":"MA","city":"Arlington","postal":"2474"},{"lat":"42.4792161","lng":"-70.90475","id":260225,"name":"Whole Foods Market","phone":"781-592-2200","address":"331 Paradise Rd","country":"US","state":"MA","city":"Swampscott","postal":"1907"},{"lat":"42.3620059","lng":"-71.3654285","id":260226,"name":"Whole Foods Market","phone":"508-358-7700","address":"317 Boston Post Rd","country":"US","state":"MA","city":"Wayland","postal":"1778"},{"lat":"42.7801332","lng":"-71.4958478","id":260227,"name":"Whole Foods Market","phone":"603-318-7550","address":"255 Amherst St","country":"US","state":"NH","city":"Nashua","postal":"3063"},{"lat":"42.4604532","lng":"-71.1635105","id":260228,"name":"Whole Foods Market","phone":"781-376-9600","address":"400 Cambridge Rd","country":"US","state":"MA","city":"Woburn","postal":"1801"},{"lat":"42.9548048","lng":"-71.4781311","id":260229,"name":"Whole Foods Market","phone":"603-218-1900","address":"121 South River Rd","country":"US","state":"NH","city":"Bedford","postal":"3110"},{"lat":"42.5682691","lng":"-71.4201251","id":260230,"name":"Whole Foods Market","phone":"978-303-2900","address":"160 Littleton RD","country":"US","state":"MA","city":"Westford ","postal":"1886"},{"lat":"42.1114476","lng":"-71.4615713","id":260231,"name":"Whole Foods Market","phone":"508-966-3331","address":"255 Hartford Ave","country":"US","state":"MA","city":"Bellingham","postal":"2019"},{"lat":"41.7846454","lng":"-72.7453666","id":260232,"name":"Whole Foods Market","phone":"860-523-7174","address":"340 N Main St","country":"US","state":"CT","city":"West Hartford","postal":"6117"},{"lat":"42.3680876","lng":"-71.1023939","id":260233,"name":"Whole Foods Market","phone":"617-492-0070","address":"115 Prospect St","country":"US","state":"MA","city":"Cambridge","postal":"2139"},{"lat":"41.7559142","lng":"-71.4560504","id":260234,"name":"Whole Foods Market","phone":"401-942-7600","address":"151 Sockanosset Cross Rd","country":"US","state":"RI","city":"Cranston","postal":"2920"},{"lat":"42.3620488","lng":"-71.0654355","id":260235,"name":"Whole Foods Market","phone":"617-723-0004","address":"181 Charles River Plaza","country":"US","state":"MA","city":"Boston","postal":"2114"},{"lat":"42.3892095","lng":"-71.1416163","id":260236,"name":"Whole Foods Market","phone":"617-491-0040","address":"200 Alewife Brook Pkwy","country":"US","state":"MA","city":"Cambridge","postal":"2138"},{"lat":"41.7149717","lng":"-72.607061","id":260237,"name":"Whole Foods Market","phone":"860-652-9800","address":"55 Welles St","country":"US","state":"CT","city":"Glastonbury","postal":"6033"},{"lat":"41.8277606","lng":"-71.3863013","id":260238,"name":"Whole Foods Market","phone":"401-272-1690","address":"261 Waterman St","country":"US","state":"RI","city":"Providence","postal":"2906"},{"lat":"42.3610067","lng":"-71.1139633","id":260239,"name":"Whole Foods Market","phone":"617-876-6990","address":"340 River St","country":"US","state":"MA","city":"Cambridge","postal":"2139"},{"lat":"41.837139","lng":"-71.408469","id":260240,"name":"Whole Foods Market","phone":"401-621-5990","address":"601 North Main St","country":"US","state":"RI","city":"Providence","postal":"2906"},{"lat":"42.3026223","lng":"-71.2859979","id":260241,"name":"Whole Foods Market","phone":"781-235-7262","address":"442 Washington St","country":"US","state":"MA","city":"Wellesley","postal":"2482"},{"lat":"41.7607788","lng":"-72.7389617","id":260242,"name":"Whole Foods Market","phone":"860-523-8500","address":"50 Raymond Rd","country":"US","state":"CT","city":"West Hartford","postal":"6107"},{"lat":"42.3212018","lng":"-71.1105127","id":260243,"name":"Whole Foods Market","phone":"617-553-5400","address":"415 Centre Street","country":"US","state":"MA","city":"Jamaica Plain","postal":"2130"},{"lat":"41.6724205","lng":"-70.3018034","id":260244,"name":"Whole Foods Market","phone":"978-749-6664","address":"990 IYANNOUGH RD","country":"US","state":"MA","city":"HYANNIS","postal":"2601"},{"lat":"42.3461672","lng":"-71.1083462","id":260245,"name":"Whole Foods Market","phone":"617-202-0550","address":"1028 Beacon St","country":"US","state":"MA","city":"Brookline","postal":"2446"},{"lat":"42.3453012","lng":"-71.0624946","id":260246,"name":"Whole Foods Market","phone":"617-904-1000","address":"348 Harrison Ave","country":"US","state":"MA","city":"BOSTON","postal":"2118"},{"lat":"40.7453038","lng":"-73.9954844","id":260247,"name":"Whole Foods Market","phone":"212-924-5969","address":"252 7th Ave","country":"US","state":"NY","city":"New York","postal":"10001"},{"lat":"40.7687596","lng":"-73.9832053","id":260248,"name":"Whole Foods Market","phone":"212-823-9600","address":"10 Columbus Cr, Ste SC 101","country":"US","state":"NY","city":"New York","postal":"10019"},{"lat":"41.0732922","lng":"-73.4761726","id":260249,"name":"Whole Foods Market","phone":"203-662-0577","address":"150 Ledge Rd","country":"US","state":"CT","city":"Darien","postal":"6820"},{"lat":"40.825033","lng":"-73.973929","id":260250,"name":"Whole Foods Market","phone":"201-941-9681","address":"905 River Rd","country":"US","state":"NJ","city":"Edgewater","postal":"7020"},{"lat":"41.0333561","lng":"-73.6243517","id":260251,"name":"Whole Foods Market","phone":"203-661-0631","address":"90 E Putnam Ave","country":"US","state":"CT","city":"Greenwich","postal":"6830"},{"lat":"40.7237669","lng":"-73.9922029","id":260252,"name":"Whole Foods Market","phone":"212-420-1320","address":"95 East Houston St","country":"US","state":"NY","city":"New York","postal":"10002"},{"lat":"40.7891251","lng":"-73.5344776","id":260253,"name":"Whole Foods Market","phone":"516-932-1733","address":"429 N Broadway","country":"US","state":"NY","city":"Jericho","postal":"11753"},{"lat":"40.8695721","lng":"-73.1257295","id":260254,"name":"Whole Foods Market","phone":"631-588-1466","address":"120 New Moriches Rd","country":"US","state":"NY","city":"Lake Grove","postal":"11755"},{"lat":"40.7156915","lng":"-74.285496","id":260255,"name":"Whole Foods Market","phone":"908-688-1455","address":"2235 Springfield Ave","country":"US","state":"NJ","city":"Union","postal":"7083"},{"lat":"40.797211","lng":"-73.670562","id":260256,"name":"Whole Foods Market","phone":"516-869-8900","address":"2101 Northern Blvd","country":"US","state":"NY","city":"Munsey Park","postal":"11030"},{"lat":"40.3751624","lng":"-74.0874042","id":260257,"name":"Whole Foods Market","phone":"732-758-1688","address":"471 Route 35 North","country":"US","state":"NJ","city":"Middletown","postal":"7701"},{"lat":"41.2483336","lng":"-73.0242897","id":260258,"name":"Whole Foods Market","phone":"203-874-0883","address":"1686 Boston Post Rd","country":"US","state":"CT","city":"Milford","postal":"6460"},{"lat":"40.8185272","lng":"-74.2228678","id":260259,"name":"Whole Foods Market","phone":"973-746-5110","address":"701 Bloomfield Ave","country":"US","state":"NJ","city":"Montclair","postal":"7042"},{"lat":"40.9156379","lng":"-74.05924","id":260260,"name":"Whole Foods Market","phone":"201-226-1244","address":"2701 Bergen Mall","country":"US","state":"NJ","city":"Paramus","postal":"7652"},{"lat":"40.753582","lng":"-74.405479","id":260261,"name":"Whole Foods Market","phone":"973-822-8444","address":"222 Main St","country":"US","state":"NJ","city":"Madison","postal":"7940"},{"lat":"40.9789177","lng":"-74.1231717","id":260262,"name":"Whole Foods Market","phone":"201-670-0383","address":"44 Godwin Avenue","country":"US","state":"NJ","city":"Ridgewood","postal":"7450"},{"lat":"40.7157539","lng":"-74.0119464","id":260263,"name":"Whole Foods Market","phone":"212-349-6555","address":"270 Greenwich St","country":"US","state":"NY","city":"New York","postal":"10007"},{"lat":"40.7341994","lng":"-73.9900714","id":260264,"name":"Whole Foods Market","phone":"212-673-5388","address":"4 Union Square South","country":"US","state":"NY","city":"New York","postal":"10003"},{"lat":"40.7946583","lng":"-73.9666277","id":260265,"name":"Whole Foods Market","phone":"212-222-6160","address":"808 Columbus Ave","country":"US","state":"NY","city":"New York","postal":"10025"},{"lat":"41.0285208","lng":"-73.7587531","id":260266,"name":"Whole Foods Market","phone":"914-288-1300","address":"110 Bloomingdale Rd","country":"US","state":"NY","city":"White Plains","postal":"10605"},{"lat":"40.7730805","lng":"-74.211033","id":260267,"name":"Whole Foods Market","phone":"973-669-3196","address":"235 Prospect St","country":"US","state":"NJ","city":"West Orange","postal":"7052"},{"lat":"41.1583343","lng":"-73.2402224","id":260268,"name":"Whole Foods Market","phone":"203-319-9544","address":"350 Grasmere Ave","country":"US","state":"CT","city":"Fairfield","postal":"6824"},{"lat":"40.7594945","lng":"-73.9661442","id":260269,"name":"Whole Foods Market","phone":"646-497-1222","address":"226 East 57th St","country":"US","state":"NY","city":"New York","postal":"10022"},{"lat":"41.1280498","lng":"-73.3801871","id":260270,"name":"Whole Foods Market","phone":"203-227-6858","address":"399 Post Rd West","country":"US","state":"CT","city":"Westport","postal":"6880"},{"lat":"41.3777667","lng":"-73.475576","id":260271,"name":"Whole Foods Market","phone":"203-730-0599","address":"5C Sugar Hollow Rd","country":"US","state":"CT","city":"Danbury","postal":"6810"},{"lat":"40.9923855","lng":"-73.6767397","id":260272,"name":"Whole Foods Market","phone":"914-939-0887","address":"575 Boston Post Road","country":"US","state":"NY","city":"Port Chester","postal":"10573"},{"lat":"40.6749755","lng":"-73.9887054","id":260273,"name":"Whole Foods Market","phone":"918-879-0493","address":"214 3RD- ST","country":"US","state":"NY","city":"Brooklyn","postal":"11215"},{"lat":"40.3520174","lng":"-74.3094977","id":260274,"name":"Whole Foods Market","phone":"732-792-5900","address":"113 Route 9 South","country":"US","state":"NJ","city":"MARLBORO","postal":"7746"},{"lat":"42.7101416","lng":"-73.8164181","id":260275,"name":"Whole Foods Market","phone":"518-621-5300","address":"1425 Central Avenue","country":"US","state":"NY","city":"ALBANY","postal":"12205"},{"lat":"40.9616307","lng":"-73.855637","id":260276,"name":"Whole Foods Market","phone":"914-378-8090","address":"One Ridge Hill Blvd","country":"US","state":"NY","city":"Yonkers","postal":"10710"},{"lat":"40.7796906","lng":"-73.9529128","id":260277,"name":"Whole Foods Market","phone":"646-891-3888","address":"1551 3rd Ave","country":"US","state":"NY","city":"New York","postal":"10128"},{"lat":"40.7996356","lng":"-74.4886804","id":260278,"name":"Whole Foods Market","phone":"973-385-1900","address":"110 Washington Street","country":"US","state":"NJ","city":"MORRISTOWN","postal":"7960"},{"lat":"40.6317675","lng":"-74.3050858","id":260279,"name":"Whole Foods Market","phone":"732-381-1010","address":"1255 Raritan RD unit 150","country":"US","state":"NJ","city":"CLARK","postal":"7066"},{"lat":"40.1549477","lng":"-74.0560645","id":260280,"name":"Whole Foods Market","phone":"732-359-3400","address":"1933 State Road 35","country":"US","state":"NJ","city":"Wall","postal":"7719"},{"lat":"40.7161352","lng":"-73.9595503","id":260281,"name":"Whole Foods Market","phone":"718-734-2321","address":"238 Bedford Ave","country":"US","state":"NY","city":"Brooklyn ","postal":"11249"},{"lat":"44.9477203","lng":"-93.3221851","id":260282,"name":"Whole Foods Market","phone":"612-927-8141","address":"3060 Excelsior Blvd","country":"US","state":"MN","city":"Minneapolis","postal":"55416"},{"lat":"41.2620083","lng":"-96.0685407","id":260283,"name":"Whole Foods Market","phone":"402-393-1200","address":"10020 Regency Cir","country":"US","state":"NE","city":"Omaha","postal":"68114"},{"lat":"38.6221006","lng":"-90.5155022","id":260284,"name":"Whole Foods Market","phone":"636-527-1160","address":"1160 Town and Country Crossing Drive","country":"US","state":"MO","city":"Chesterfield","postal":"63017"},{"lat":"38.6270702","lng":"-90.3478795","id":260285,"name":"Whole Foods Market","phone":"314-968-7744","address":"1601 South Brentwood Blvd","country":"US","state":"MO","city":"St Louis","postal":"63144"},{"lat":"44.9741486","lng":"-93.4453822","id":260286,"name":"Whole Foods Market","phone":"952-797-5626","address":"1001 Plymouth Rd","country":"US","state":"MN","city":"Minnetonka","postal":"55305"},{"lat":"41.5985218","lng":"-93.759709","id":260287,"name":"Whole Foods Market","phone":"515-343-2600","address":"4100 University Ave","country":"US","state":"IA","city":"West Des Moines","postal":"50266"},{"lat":"40.8129972","lng":"-96.639076","id":260288,"name":"Whole Foods Market","phone":"402-486-6000","address":"6055 O Street","country":"US","state":"NE","city":"Lincoln","postal":"68510"},{"lat":"45.0914367","lng":"-93.4359011","id":260289,"name":"Whole Foods Market","phone":"763-416-7300","address":"12201 Elm Creek Blvd N","country":"US","state":"MN","city":"Maple Grove","postal":"55369"},{"lat":"44.9828324","lng":"-93.2695125","id":260290,"name":"Whole Foods Market","phone":"612-313-7100","address":"222 Hennepin Ave","country":"US","state":"MN","city":"Minneapolis","postal":"55401"},{"lat":"44.8699238","lng":"-93.3288105","id":260291,"name":"Whole Foods Market","phone":"952-830-3500","address":"7401 France Ave South","country":"US","state":"MN","city":"Edina","postal":"55435"},{"lat":"44.9465768","lng":"-93.1667004","id":260292,"name":"Whole Foods Market","phone":"651-690-0197","address":"1575 Selby Avenue ","country":"US","state":"MN","city":"St. Paul, MN ","postal":"55104"},{"lat":"38.6414282","lng":"-90.2602716","id":260293,"name":"Whole Foods Market","phone":"314-474-7300","address":"4577 West Pine Blvd.","country":"US","state":"MO","city":"St Louis","postal":"63108"},{"lat":"41.9903526","lng":"-87.7489513","id":260294,"name":"Whole Foods Market","phone":"773-205-1100","address":"6020 N Cicero Ave","country":"US","state":"IL","city":"Chicago","postal":"60646"},{"lat":"42.1662565","lng":"-87.8481107","id":260295,"name":"Whole Foods Market","phone":"847-444-1900","address":"760 Waukegan Rd","country":"US","state":"IL","city":"Deerfield","postal":"60015"},{"lat":"42.0475917","lng":"-87.6795601","id":260296,"name":"Whole Foods Market","phone":"847-733-1600","address":"1640 Chicago Ave","country":"US","state":"IL","city":"Evanston","postal":"60201"},{"lat":"41.8950201","lng":"-87.6290687","id":260297,"name":"Whole Foods Market","phone":"312-932-9600","address":"30 W Huron St","country":"US","state":"IL","city":"Chicago","postal":"60610"},{"lat":"43.0751711","lng":"-89.444212","id":260298,"name":"Whole Foods Market","phone":"608-233-9566","address":"3313 University Ave","country":"US","state":"WI","city":"Madison","postal":"53705"},{"lat":"43.0607982","lng":"-87.883825","id":260299,"name":"Whole Foods Market","phone":"414-223-1500","address":"2305 N Prospect Ave","country":"US","state":"WI","city":"Milwaukee","postal":"53202"},{"lat":"42.1072909","lng":"-87.800411","id":260300,"name":"Whole Foods Market","phone":"847-205-5353","address":"840 Willow Rd","country":"US","state":"IL","city":"Northbrook","postal":"60062"},{"lat":"41.7489072","lng":"-88.1997473","id":260301,"name":"Whole Foods Market","phone":"630-579-7702","address":"2607 West 75th St","country":"US","state":"IL","city":"Naperville","postal":"60540"},{"lat":"42.1595423","lng":"-88.0440514","id":260302,"name":"Whole Foods Market","phone":"(847) 726-4601","address":"20281 N Rand Rd","country":"US","state":"IL","city":"Kildeer","postal":"60074"},{"lat":"41.8873966","lng":"-87.8064734","id":260303,"name":"Whole Foods Market","phone":"708-366-1045","address":"7245 West Lake St","country":"US","state":"IL","city":"River Forest","postal":"60305"},{"lat":"42.0421448","lng":"-88.0367054","id":260304,"name":"Whole Foods Market","phone":"847-585-5800","address":"750 N Martingale Rd","country":"US","state":"IL","city":"Schaumburg","postal":"60173"},{"lat":"41.8310359","lng":"-88.0994283","id":260305,"name":"Whole Foods Market","phone":"630-588-1500","address":"151 Rice Lake Square","country":"US","state":"IL","city":"Wheaton","postal":"60187"},{"lat":"42.2579958","lng":"-83.6982231","id":260306,"name":"Whole Foods Market","phone":"734-975-4500","address":"3135 Washtenaw","country":"US","state":"MI","city":"Ann Arbor","postal":"48104"},{"lat":"42.2468268","lng":"-83.7593139","id":260307,"name":"Whole Foods Market","phone":"734-997-7500","address":"1000 West Eisenhower Pkwy","country":"US","state":"MI","city":"Ann Arbor","postal":"48103"},{"lat":"39.999211","lng":"-86.1312218","id":260308,"name":"Whole Foods Market","phone":"317-569-1517","address":"14598 Clay Terrace Blvd","country":"US","state":"IN","city":"Carmel","postal":"46032"},{"lat":"42.0379405","lng":"-87.6797866","id":260309,"name":"Whole Foods Market","phone":"847-475-9492","address":"1111 Chicago Ave","country":"US","state":"IL","city":"Evanston","postal":"60202"},{"lat":"41.948205","lng":"-87.649512","id":260310,"name":"Whole Foods Market","phone":"773-472-0400","address":"3626 N Halsted","country":"US","state":"IL","city":"Chicago","postal":"60613"},{"lat":"41.8175033","lng":"-87.9167723","id":260311,"name":"Whole Foods Market","phone":"630-986-8500","address":"500 E Ogden Ave","country":"US","state":"IL","city":"Hinsdale","postal":"60521"},{"lat":"39.914735","lng":"-86.1384237","id":260312,"name":"Whole Foods Market","phone":"317-706-0900","address":"1300 E 86th St","country":"US","state":"IN","city":"Indianapolis","postal":"46240"},{"lat":"41.908272","lng":"-87.6522086","id":260313,"name":"Whole Foods Market","phone":"312-587-0648","address":"1500 N Kingsbury St","country":"US","state":"IL","city":"Chicago","postal":"60622"},{"lat":"41.9418663","lng":"-87.6695462","id":260314,"name":"Whole Foods Market","phone":"773-244-4200","address":"3300 N Ashland","country":"US","state":"IL","city":"Chicago","postal":"60657"},{"lat":"42.6822016","lng":"-83.1917101","id":260315,"name":"Whole Foods Market","phone":"248-652-2100","address":"2918 Walton Blvd","country":"US","state":"MI","city":"Rochester Hills","postal":"48309"},{"lat":"41.8675244","lng":"-87.6387876","id":260316,"name":"Whole Foods Market","phone":"312-435-4600","address":"1101 South Canal St","country":"US","state":"IL","city":"Chicago","postal":"60607"},{"lat":"42.5486966","lng":"-83.1853091","id":260317,"name":"Whole Foods Market","phone":"248-649-9600","address":"2880 W Maple","country":"US","state":"MI","city":"Troy","postal":"48084"},{"lat":"41.6126932","lng":"-87.8549829","id":260318,"name":"Whole Foods Market","phone":"708-364-1350","address":"15260 S LaGrange Rd","country":"US","state":"IL","city":"Orland Park","postal":"60642"},{"lat":"41.6989919","lng":"-86.1856225","id":260319,"name":"Whole Foods Market","phone":"574-247-5800","address":"4230 Grape Rd","country":"US","state":"IN","city":"Mishawaka","postal":"46545"},{"lat":"42.0109678","lng":"-87.8257493","id":260320,"name":"Whole Foods Market","phone":"847-292-7100","address":"225 W TOUHY AVE","country":"US","state":"IL","city":"Park Ridge","postal":"60068"},{"lat":"42.3485364","lng":"-83.0565724","id":260321,"name":"Whole Foods Market","phone":"313-576-5300","address":"115 Mack Ave- ","country":"US","state":"MI","city":"Detroit","postal":"48202"},{"lat":"42.5295158","lng":"-83.3630143","id":260322,"name":"Whole Foods Market","phone":"248-538-4600","address":"7350 West Orchard Lake Rd","country":"US","state":"MI","city":"West Bloomfield","postal":"48322"},{"lat":"41.8914152","lng":"-87.6207571","id":260323,"name":"Whole Foods Market","phone":"313-379-7900","address":"255 E Grand Ave","country":"US","state":"IL","city":"CHICAGO","postal":"60611"},{"lat":"41.9252022","lng":"-87.653384","id":260324,"name":"Whole Foods Market","phone":"312-799-5600","address":"959 West Fullerton Ave","country":"US","state":"IL","city":"Chicago","postal":"60614"},{"lat":"41.8823819","lng":"-87.6468863","id":260325,"name":"Whole Foods Market","phone":"312-207-8400","address":"1 N. Halsted Street","country":"US","state":"IL","city":"Chicago","postal":"60661"},{"lat":"41.9911475","lng":"-87.6596522","id":260326,"name":"Whole Foods Market","phone":"773-506-7600","address":"6009 North Broadway","country":"US","state":"IL","city":"Chicago","postal":"60660"},{"lat":"41.8938406","lng":"-87.9603936","id":260327,"name":"Whole Foods Market","phone":"630-993-7600","address":"215 S. IL RTE 83","country":"US","state":"IL","city":"ELMHURST","postal":"60126"},{"lat":"42.0680236","lng":"-87.7018852","id":260328,"name":"Whole Foods Market","phone":"847-424-5700","address":"2748 Green Bay Road","country":"US","state":"IL","city":"EVANSTON","postal":"60201"},{"lat":"41.7726842","lng":"-87.9498242","id":260329,"name":"Whole Foods Market","phone":"630-655-5000","address":"6300 Kingery Highway","country":"US","state":"IL","city":"WILLOWBROOK","postal":"60527"},{"lat":"41.519184","lng":"-87.4705305","id":260330,"name":"Whole Foods Market","phone":"219-864-5400","address":"199 US HWY 41","country":"US","state":"IN","city":"Schererville","postal":"46375"},{"lat":"43.07555","lng":"-88.051739","id":260331,"name":"Whole Foods Market","phone":"414-8083600","address":"11100 W. Burleigh St","country":"US","state":"WI","city":"Wauwatosa","postal":"53222"},{"lat":"42.7282893","lng":"-84.4529556","id":260332,"name":"Whole Foods Market","phone":"517-319-2000","address":"2750 E Grand River Ave","country":"US","state":"MI","city":"East Lansing","postal":"48823"},{"lat":"26.3658781","lng":"-80.1122571","id":260333,"name":"Whole Foods Market","phone":"561-447-0000","address":"1400B Glades Rd","country":"US","state":"FL","city":"Boca Raton","postal":"33431"},{"lat":"28.4491643","lng":"-81.4765302","id":260334,"name":"Whole Foods Market","phone":"407-355-7100","address":"8003 Turkey Lake Rd","country":"US","state":"FL","city":"Orlando","postal":"32819"},{"lat":"25.971192","lng":"-80.1409292","id":260335,"name":"Whole Foods Market","phone":"305-933-1543","address":"21105 Biscayne Blvd","country":"US","state":"FL","city":"Aventura","postal":"33180"},{"lat":"25.7064347","lng":"-80.2854444","id":260336,"name":"Whole Foods Market","phone":"305-421-9421","address":"6701 Red Rd","country":"US","state":"FL","city":"Coral Gables","postal":"33143"},{"lat":"26.2425768","lng":"-80.2568353","id":260337,"name":"Whole Foods Market","phone":"954-753-8000","address":"810 University Dr","country":"US","state":"FL","city":"Coral Springs","postal":"33071"},{"lat":"26.1528344","lng":"-80.1181419","id":260338,"name":"Whole Foods Market","phone":"954-565-5655","address":"2000 N Federal Hwy","country":"US","state":"FL","city":"Ft Lauderdale","postal":"33305"},{"lat":"30.1851293","lng":"-81.6266428","id":260339,"name":"Whole Foods Market","phone":"000-000-0000","address":"10601 San Jose Blvd","country":"US","state":"FL","city":"Jacksonville","postal":"32257"},{"lat":"26.2545901","lng":"-81.79995","id":260340,"name":"Whole Foods Market","phone":"239-552-5100","address":"9101 Strada Place","country":"US","state":"FL","city":"Naples","postal":"34108"},{"lat":"25.6626348","lng":"-80.3253201","id":260341,"name":"Whole Foods Market","phone":"305-971-0900","address":"11701 S Dixie Hwy","country":"US","state":"FL","city":"Pinecrest","postal":"33156"},{"lat":"26.8495412","lng":"-80.0948279","id":260342,"name":"Whole Foods Market","phone":"561-691-8550","address":"11701 Lake Victoria Gardens Ave S","country":"US","state":"FL","city":"Palm Beach Gardens","postal":"33410"},{"lat":"27.3372605","lng":"-82.5409825","id":260343,"name":"Whole Foods Market","phone":"941-955-8500","address":"1451 1st St","country":"US","state":"FL","city":"Sarasota","postal":"34236"},{"lat":"25.7810058","lng":"-80.1413189","id":260344,"name":"Whole Foods Market","phone":"305-532-1707","address":"1020 Alton Rd","country":"US","state":"FL","city":"Miami","postal":"33139"},{"lat":"27.9566643","lng":"-82.5084048","id":260345,"name":"Whole Foods Market","phone":"813-874-9435","address":"1548 North Dale Mabry Blvd","country":"US","state":"FL","city":"Tampa","postal":"33607"},{"lat":"26.6414156","lng":"-80.2062044","id":260346,"name":"Whole Foods Market","phone":"561-904-4000","address":"2635 State Rd 7","country":"US","state":"FL","city":"Wellington","postal":"33414"},{"lat":"28.0930403","lng":"-82.5041436","id":260347,"name":"Whole Foods Market","phone":"813-264-3600","address":"3802 Northdale Blvd","country":"US","state":"FL","city":"Tampa","postal":"33624"},{"lat":"28.6005645","lng":"-81.3252391","id":260348,"name":"Whole Foods Market","phone":"407-673-8788","address":"1989 Aloma Ave","country":"US","state":"FL","city":"Winter Park","postal":"32792"},{"lat":"26.0065437","lng":"-80.3495814","id":260349,"name":"Whole Foods Market","phone":"954-392-3500","address":"14956 Pines Blvd","country":"US","state":"FL","city":"Pembroke Pines","postal":"33027"},{"lat":"30.4632954","lng":"-84.2702379","id":260350,"name":"Whole Foods Market","phone":"850-513-4200","address":"1817 Thomasville Rd #300","country":"US","state":"FL","city":"Tallahassee","postal":"32303"},{"lat":"28.0174914","lng":"-82.734234","id":260351,"name":"Whole Foods Market","phone":"727-724-7100","address":"27001 US 19 North","country":"US","state":"FL","city":"Clearwater","postal":"33761"},{"lat":"25.8879775","lng":"-80.1652886","id":260352,"name":"Whole Foods Market","phone":"305-892-5500","address":"12150 Biscayne Blvd","country":"US","state":"FL","city":"North Miami","postal":"33181"},{"lat":"25.771972","lng":"-80.1890723","id":260353,"name":"Whole Foods Market","phone":"305-995-0600","address":"299 SE 3rd Street","country":"US","state":"FL","city":"Miami","postal":"33131"},{"lat":"26.261326","lng":"-80.1012923","id":260354,"name":"Whole Foods Market","phone":"954-786-3500","address":"2411 N Federal Highway","country":"US","state":"FL","city":"Pompano Beach","postal":"33062"},{"lat":"26.0965281","lng":"-80.2518979","id":260355,"name":"Whole Foods Market","phone":"954-916-3000","address":"1903 S. University Dr","country":"US","state":"FL","city":"Davie","postal":"33324"},{"lat":"26.7207609","lng":"-80.0893355","id":260356,"name":"Whole Foods Market","phone":"561-691-5555","address":"1845 Palm Beach Lakes Blvd","country":"US","state":"FL","city":"West Palm Beach","postal":"33401"},{"lat":"28.6624759","lng":"-81.3819919","id":260357,"name":"Whole Foods Market","phone":"407-767-2100","address":"305 East Altamonte Dr Suite 1000","country":"US","state":"FL","city":"ALTAMONTE SPRINGS","postal":"32701"},{"lat":"30.3902738","lng":"-86.4202902","id":260358,"name":"Whole Foods Market","phone":"850-269-7400","address":"4402 Legendary Dr","country":"US","state":"FL","city":"Destin","postal":"32541"},{"lat":"41.4633501","lng":"-81.4862972","id":260359,"name":"Whole Foods Market","phone":"216-464-9403","address":"27249 Chagrin Blvd","country":"US","state":"OH","city":"Woodmere","postal":"44122"},{"lat":"39.1492183","lng":"-84.4449046","id":260360,"name":"Whole Foods Market","phone":"513-531-8015","address":"2693 Edmondson Rd","country":"US","state":"OH","city":"Cincinnati","postal":"45209"},{"lat":"41.5007845","lng":"-81.5369211","id":260361,"name":"Whole Foods Market","phone":"216-371-5320","address":"13998 Cedar Rd","country":"US","state":"OH","city":"University Heights","postal":"44118"},{"lat":"40.0983462","lng":"-83.0869952","id":260362,"name":"Whole Foods Market","phone":"614-760-5556","address":"3670 W Dublin-Grandville Rd","country":"US","state":"OH","city":"Columbus","postal":"43235"},{"lat":"37.9944286","lng":"-84.5246782","id":260363,"name":"Whole Foods Market","phone":"859-971-8600","address":"161 Lexington Green Cir","country":"US","state":"KY","city":"Lexington","postal":"40503"},{"lat":"38.2487039","lng":"-85.6259318","id":260364,"name":"Whole Foods Market","phone":"502-899-5545","address":"4944 Shelbyville Rd","country":"US","state":"KY","city":"Louisville","postal":"40207"},{"lat":"39.3091425","lng":"-84.3166423","id":260365,"name":"Whole Foods Market","phone":"513-398-9358","address":"5805 Deerfield Blvd","country":"US","state":"OH","city":"Mason","postal":"45040"},{"lat":"40.006602","lng":"-83.0525842","id":260366,"name":"Whole Foods Market","phone":"614-481-3400","address":"1555 W Lane Ave","country":"US","state":"OH","city":"Upper Arlington","postal":"43221"},{"lat":"39.6279596","lng":"-84.189132","id":260367,"name":"Whole Foods Market","phone":"937-999-6880","address":"1050 MIAMISBURG CENTERVILLE RD","country":"US","state":"OH","city":"Dayton","postal":"45458"},{"lat":"40.0570329","lng":"-82.9095662","id":260368,"name":"Whole Foods Market","phone":"614-536-0570","address":"4100 Easton Gateway Drive   ","country":"US","state":"OH","city":"Columbus","postal":"43219"},{"lat":"41.478747","lng":"-81.8396403","id":260369,"name":"Whole Foods Market","phone":"440-596-3440","address":"19607 Detroit Road","country":"US","state":"OH","city":"Rocky River","postal":"44116"},{"lat":"38.9817499","lng":"-76.5407361","id":260370,"name":"Whole Foods Market","phone":"410-573-1800","address":"200 Harker Place, Ste 100 ","country":"US","state":"MD","city":"Annapolis","postal":"21401"},{"lat":"38.88924","lng":"-77.090896","id":260371,"name":"Whole Foods Market","phone":"703-527-6596","address":"2700 Wilson Blvd","country":"US","state":"VA","city":"Arlington","postal":"22201"},{"lat":"38.9660278","lng":"-77.104317","id":260372,"name":"Whole Foods Market","phone":"301-984-4860","address":"5269 River Rd","country":"US","state":"MD","city":"Bethesda","postal":"20816"},{"lat":"38.9617765","lng":"-77.086922","id":260373,"name":"Whole Foods Market","phone":"301-657-1520","address":"4420 Willard Ave","country":"US","state":"MD","city":"Chevy Chase","postal":"20815"},{"lat":"38.0598097","lng":"-78.4894625","id":260374,"name":"Whole Foods Market","phone":"434-973-4900","address":"1797 Hydraulic Rd","country":"US","state":"VA","city":"Charlottesville","postal":"22901"},{"lat":"40.0488438","lng":"-75.4112012","id":260375,"name":"Whole Foods Market","phone":"610-688-9400","address":"821 Lancaster Ave","country":"US","state":"PA","city":"Wayne","postal":"19087"},{"lat":"38.8576296","lng":"-77.3772805","id":260376,"name":"Whole Foods Market","phone":"703-222-2058","address":"4501 Market Commons Dr","country":"US","state":"VA","city":"Fairfax","postal":"22033"},{"lat":"38.920965","lng":"-77.071354","id":260377,"name":"Whole Foods Market","phone":"202-333-5393","address":"2323 Wisconsin Ave NW","country":"US","state":"DC","city":"Washington","postal":"20007"},{"lat":"39.2840361","lng":"-76.5994138","id":260378,"name":"Whole Foods Market","phone":"410-528-1640","address":"1001 Fleet St","country":"US","state":"MD","city":"Baltimore","postal":"21202"},{"lat":"40.1058841","lng":"-75.1215193","id":260379,"name":"Whole Foods Market","phone":"215-481-0800","address":"1575 Fairway Rd","country":"US","state":"PA","city":"Rydal","postal":"19046"},{"lat":"39.1232834","lng":"-77.2388201","id":260380,"name":"Whole Foods Market","phone":"301-258-9500","address":"316 Kentlands Blvd","country":"US","state":"MD","city":"Gaithersburg","postal":"20878"},{"lat":"39.9081013","lng":"-74.9378874","id":260381,"name":"Whole Foods Market","phone":"856-797-1115","address":"940 Route 73 North","country":"US","state":"NJ","city":"Marlton","postal":"8053"},{"lat":"39.3683779","lng":"-76.6498366","id":260382,"name":"Whole Foods Market","phone":"410-532-6700","address":"1330 Smith Ave","country":"US","state":"MD","city":"Baltimore","postal":"21209"},{"lat":"40.2084714","lng":"-75.2259542","id":260383,"name":"Whole Foods Market","phone":"215-646-6300","address":"1210 Bethlehem Pike","country":"US","state":"PA","city":"North Wales","postal":"19454"},{"lat":"38.8041416","lng":"-77.0600615","id":260384,"name":"Whole Foods Market","phone":"703-706-0891","address":"1700 Duke St","country":"US","state":"VA","city":"Alexandria","postal":"22314"},{"lat":"39.961634","lng":"-75.1726892","id":260385,"name":"Whole Foods Market","phone":"215-557-0015","address":"2001 Pennsylvania Ave","country":"US","state":"PA","city":"Philadelphia","postal":"19130"},{"lat":"40.1158261","lng":"-75.2820725","id":260386,"name":"Whole Foods Market","phone":"610-832-0011","address":"500 W Germantown Pike","country":"US","state":"PA","city":"Plymouth Meeting","postal":"19462"},{"lat":"40.3083636","lng":"-74.6685614","id":260387,"name":"Whole Foods Market","phone":"609-799-2919","address":"3495 US Rt 1 South","country":"US","state":"NJ","city":"Princeton","postal":"8540"},{"lat":"38.909318","lng":"-77.033494","id":260388,"name":"Whole Foods Market","phone":"202-332-4300","address":"1440 P St NW","country":"US","state":"DC","city":"Washington","postal":"20005"},{"lat":"40.458461","lng":"-79.9289855","id":260389,"name":"Whole Foods Market","phone":"412-441-7960","address":"5880 Centre Ave","country":"US","state":"PA","city":"Pittsburgh","postal":"15206"},{"lat":"38.9517828","lng":"-77.3491828","id":260390,"name":"Whole Foods Market","phone":"703-736-0600","address":"11660 Plaza America Dr","country":"US","state":"VA","city":"Reston","postal":"20191"},{"lat":"39.0430696","lng":"-77.1131376","id":260391,"name":"Whole Foods Market","phone":"301-984-4880","address":"11355 Woodglen Dr","country":"US","state":"MD","city":"Rockville","postal":"20852"},{"lat":"39.9429136","lng":"-75.1577838","id":260392,"name":"Whole Foods Market","phone":"215-733-9788","address":"929 South St","country":"US","state":"PA","city":"Philadelphia","postal":"19147"},{"lat":"37.6489077","lng":"-77.5994715","id":260393,"name":"Whole Foods Market","phone":"301-608-9373","address":"11173 West BRd St","country":"US","state":"VA","city":"Glen Allen","postal":"23060"},{"lat":"38.7796348","lng":"-77.2343247","id":260394,"name":"Whole Foods Market","phone":"703-644-2500","address":"8402 Old Keene Mill Rd","country":"US","state":"VA","city":"Springfield","postal":"22152"},{"lat":"38.9963303","lng":"-77.0242399","id":260395,"name":"Whole Foods Market","phone":"301-608-9373","address":"833 Wayne Ave","country":"US","state":"MD","city":"Silver Spring","postal":"20910"},{"lat":"38.9485976","lng":"-77.0792007","id":260396,"name":"Whole Foods Market","phone":"202-237-5800","address":"4530 40th St NW Tenley Circle","country":"US","state":"DC","city":"Washington","postal":"20016"},{"lat":"38.903442","lng":"-77.2044823","id":260397,"name":"Whole Foods Market","phone":"703-448-1600","address":"7511 Leesburg Pike","country":"US","state":"VA","city":"Falls Church","postal":"22043"},{"lat":"38.9023573","lng":"-77.262866","id":260398,"name":"Whole Foods Market","phone":"703-319-2000","address":"143 Maple Ave East","country":"US","state":"VA","city":"Vienna","postal":"22180"},{"lat":"36.8509319","lng":"-76.0281576","id":260399,"name":"Whole Foods Market","phone":"757-422-0444","address":"1800 Laskin Rd","country":"US","state":"VA","city":"Virginia Beach","postal":"23454"},{"lat":"38.9009095","lng":"-77.0490724","id":260400,"name":"Whole Foods Market","phone":"202-296-1660","address":"2201 Eye St NW","country":"US","state":"DC","city":"Washington","postal":"20037"},{"lat":"39.8631712","lng":"-75.5431355","id":260401,"name":"Whole Foods Market","phone":"610-358-1133","address":"475 Wilmington West Chester Pike","country":"US","state":"PA","city":"Glen Mills","postal":"19342"},{"lat":"39.9159124","lng":"-75.0113744","id":260402,"name":"Whole Foods Market","address":"1558 North Kings Highway","country":"US","state":"NJ","city":"CHERRY HILL","postal":"8034"},{"lat":"39.2139148","lng":"-76.8558267","id":260403,"name":"Whole Foods Market","phone":"240-865-1827","address":"10275 Little Patuxent Pkwy","country":"US","state":"MD","city":"COLUMBIA","postal":"21044"},{"lat":"40.6120723","lng":"-80.0542849","id":260404,"name":"Whole Foods Market","phone":"(724) 940-6100","address":"10576 Perry Hwy","country":"US","state":"PA","city":"Wexford","postal":"15090"},{"lat":"39.068549","lng":"-77.4843156","id":260405,"name":"Whole Foods Market","phone":"571-223-4440","address":"19800 Belmont Chase Dr Suite 160","country":"US","state":"VA","city":"Ashburn","postal":"20147"},{"lat":"37.1030465","lng":"-76.4905715","id":260406,"name":"Whole Foods Market","phone":"757-947-2460","address":"12080 Jefferson Ave","country":"US","state":"VA","city":"New Port News","postal":"23606"},{"lat":"38.8624563","lng":"-77.0548425","id":260407,"name":"Whole Foods Market","phone":"571-777-3948","address":"520 12th st South, Suite 100","country":"US","state":"VA","city":"Arlington","postal":"22202"},{"lat":"40.001739","lng":"-75.2752008","id":260408,"name":"Whole Foods Market","phone":"610-896-3737","address":"15 East Wynnewood Rd","country":"US","state":"PA","city":"Wynnewood","postal":"19096"},{"lat":"40.5642373","lng":"-75.5640252","id":260409,"name":"Whole Foods Market","phone":"484-506-2159","address":"750 N Krocks Road Suite 301","country":"US","state":"PA","city":"Allentown","postal":"18106"},{"lat":"35.1464368","lng":"-106.5559643","id":260410,"name":"Whole Foods Market","phone":"505-856-0474","address":"5815 Wyoming Blvd NE","country":"US","state":"NM","city":"Albuquerque","postal":"87109"},{"lat":"35.1028853","lng":"-106.6050195","id":260411,"name":"Whole Foods Market","phone":"505-260-1366","address":"2103 Carlisle Blvd NE","country":"US","state":"NM","city":"Albuquerque","postal":"87110"},{"lat":"39.3870291","lng":"-107.0827613","id":260412,"name":"Whole Foods Market","phone":"(970) 927-1500","address":"340 Reed St","country":"US","state":"CO","city":"Basalt","postal":"81621"},{"lat":"43.6078634","lng":"-116.1946376","id":260413,"name":"Whole Foods Market","phone":"208-287-4600","address":"401 S Broadway St","country":"US","state":"ID","city":"Boise","postal":"83702"},{"lat":"39.9994238","lng":"-105.2610577","id":260414,"name":"Whole Foods Market","phone":"303-499-7636","address":"2584 Baseline Rd","country":"US","state":"CO","city":"Boulder","postal":"80303"},{"lat":"40.0255211","lng":"-105.2809136","id":260415,"name":"Whole Foods Market","phone":"303-443-8385","address":"1275 Alpine Ave","country":"US","state":"CO","city":"Boulder","postal":"80304"},{"lat":"40.0240583","lng":"-105.2560887","id":260416,"name":"Whole Foods Market","phone":"303-545-6611","address":"2905 Pearl St","country":"US","state":"CO","city":"Boulder","postal":"80302"},{"lat":"39.5920828","lng":"-104.9621919","id":260417,"name":"Whole Foods Market","phone":"303-996-3660","address":"6853 York Street, Ste 119","country":"US","state":"CO","city":"Centennial","postal":"80122"},{"lat":"38.8786088","lng":"-104.7177591","id":260418,"name":"Whole Foods Market","phone":"719-622-1099","address":"3180 New Center Point","country":"US","state":"CO","city":"Colorado Springs","postal":"80922"},{"lat":"38.9421289","lng":"-104.7974014","id":260419,"name":"Whole Foods Market","phone":"719-531-9999","address":"7635 Academy Dr","country":"US","state":"CO","city":"Colorado Springs","postal":"80920"},{"lat":"39.7186572","lng":"-104.9573048","id":260420,"name":"Whole Foods Market","phone":"720-941-4100","address":"2375 East First Ave","country":"US","state":"CO","city":"Denver","postal":"80206"},{"lat":"39.7336887","lng":"-104.9758629","id":260421,"name":"Whole Foods Market","phone":"303-832-7701","address":"900 E 11th Ave","country":"US","state":"CO","city":"Denver","postal":"80218"},{"lat":"39.6516563","lng":"-104.9014127","id":260422,"name":"Whole Foods Market","phone":"303-488-2000","address":"7400 East Hampden","country":"US","state":"CO","city":"Denver","postal":"80231"},{"lat":"39.6960472","lng":"-104.9792554","id":260423,"name":"Whole Foods Market","phone":"303-733-6201","address":"1111 S Washinton St","country":"US","state":"CO","city":"Denver","postal":"80210"},{"lat":"40.5590326","lng":"-105.0787017","id":260424,"name":"Whole Foods Market","phone":"970-267-9200","address":"2201 S College","country":"US","state":"CO","city":"Fort Collins","postal":"80525"},{"lat":"39.70062","lng":"-104.939902","id":260425,"name":"Whole Foods Market","phone":"303-691-0101","address":"870 S Colorado Blvd","country":"US","state":"CO","city":"Glendale","postal":"80246"},{"lat":"39.5451055","lng":"-104.9421364","id":260426,"name":"Whole Foods Market","phone":"303-470-6003","address":"9366 South Colorado Blvd","country":"US","state":"CO","city":"Highlands Ranch","postal":"80126"},{"lat":"39.7087089","lng":"-105.0805958","id":260427,"name":"Whole Foods Market","phone":"303-935-5000","address":"444 S Wadsworth Blvd","country":"US","state":"CO","city":"Lakewood","postal":"80226"},{"lat":"39.7357228","lng":"-105.1588246","id":260428,"name":"Whole Foods Market","phone":"303-277-1339","address":"14357 W Colfax Ave","country":"US","state":"CO","city":"Lakewood","postal":"80401"},{"lat":"39.6232419","lng":"-105.0913218","id":260429,"name":"Whole Foods Market","phone":"303-856-5220","address":"5155 S Wadsworth Blvd","country":"US","state":"CO","city":"Lakewood","postal":"80123"},{"lat":"38.9116797","lng":"-94.6620768","id":260430,"name":"Whole Foods Market","phone":"913-663-2951","address":"6621 W 119th St","country":"US","state":"KS","city":"Overland Park","postal":"66209"},{"lat":"38.9634431","lng":"-94.6715351","id":260431,"name":"Whole Foods Market","phone":"913-652-9633","address":"7401 West  91st St","country":"US","state":"KS","city":"Overland Park","postal":"66212"},{"lat":"40.721205","lng":"-111.5430456","id":260432,"name":"Whole Foods Market","phone":"435-575-0200","address":"1748 West Redstone Center Dr","country":"US","state":"UT","city":"Park City","postal":"84098"},{"lat":"40.757846","lng":"-111.87185","id":260433,"name":"Whole Foods Market","phone":"801-924-9060","address":"544 South 700 East","country":"US","state":"UT","city":"Salt Lake City","postal":"84102"},{"lat":"40.6250967","lng":"-111.8358698","id":260434,"name":"Whole Foods Market","phone":"801-733-9455","address":"6930 S Highland Dr","country":"US","state":"UT","city":"Cottonwood Heights","postal":"84121"},{"lat":"40.723638","lng":"-111.8589443","id":260435,"name":"Whole Foods Market","phone":"801-359-7913","address":"1131 E Wilmington Ave","country":"US","state":"UT","city":"Salt Lake City","postal":"84106"},{"lat":"35.6789927","lng":"-105.9505068","id":260436,"name":"Whole Foods Market","phone":"505-992-1700","address":"753 Cerillos Rd","country":"US","state":"NM","city":"Santa Fe","postal":"87501"},{"lat":"35.6747806","lng":"-105.9542844","id":260437,"name":"Whole Foods Market","phone":"505-983-5333","address":"1090 S Saint Francis Dr","country":"US","state":"NM","city":"Santa Fe","postal":"87501"},{"lat":"39.5887456","lng":"-106.1003496","id":260438,"name":"Whole Foods Market","phone":"970-688-9400","address":"261 Lusher Court","country":"US","state":"CO","city":"FRISCO","postal":"80443"},{"lat":"39.9565313","lng":"-105.1679476","id":260439,"name":"Whole Foods Market","phone":"720-274-1415","address":"303 Marshall Rd","country":"US","state":"CO","city":"Superior","postal":"80027"},{"lat":"40.5428825","lng":"-111.8900473","id":260440,"name":"Whole Foods Market","phone":"801-676-2200 ","address":"11479 S- State Street, Suite B","country":"US","state":"UT","city":"DRAPER","postal":"84020"},{"lat":"37.7096801","lng":"-97.2276409","id":260441,"name":"Whole Foods Market","phone":"316-630-8484","address":"1423 N. Webb Rd. Suite 101","country":"US","state":"KS","city":"WICHITA","postal":"67206"},{"lat":"39.9128343","lng":"-105.0441566","id":260442,"name":"Whole Foods Market","phone":"303-439-7000","address":"4451 Main St","country":"US","state":"CO","city":"WESTMINSTER","postal":"80031"},{"lat":"38.9114755","lng":"-94.7564628","id":260443,"name":"Whole Foods Market","phone":"913-765-5656","address":"14615 W. 119TH. STREET","country":"US","state":"KS","city":"OLATHE","postal":"66062"},{"lat":"29.7068766","lng":"-95.4416412","id":260444,"name":"Whole Foods Market","phone":"713-667-4090","address":"4004 Bellaire Blvd","country":"US","state":"TX","city":"Houston","postal":"77025"},{"lat":"32.9082624","lng":"-96.8028444","id":260445,"name":"Whole Foods Market","phone":"214-361-8887","address":"11700 Preston Rd","country":"US","state":"TX","city":"Dallas","postal":"75219"},{"lat":"30.3899916","lng":"-97.7399523","id":260446,"name":"Whole Foods Market","phone":"512-345-5003","address":"9607 Research Blvd #300","country":"US","state":"TX","city":"Austin","postal":"78759"},{"lat":"32.820978","lng":"-96.8150013","id":260447,"name":"Whole Foods Market","phone":"214-520-7993","address":"4100 Lomo Alto Dr","country":"US","state":"TX","city":"Highland Park","postal":"75219"},{"lat":"29.7394063","lng":"-95.4182558","id":260448,"name":"Whole Foods Market","phone":"713-520-1937","address":"2955 Kirby Dr","country":"US","state":"TX","city":"Houston","postal":"77098"},{"lat":"32.815725","lng":"-96.752078","id":260449,"name":"Whole Foods Market","phone":"214-824-1744","address":"2118 Abrams Rd","country":"US","state":"TX","city":"Dallas","postal":"75214"},{"lat":"30.2706676","lng":"-97.7532464","id":260450,"name":"Whole Foods Market","phone":"512-476-1206","address":"525 N Lamar","country":"US","state":"TX","city":"Austin","postal":"78703"},{"lat":"32.8716416","lng":"-96.7657217","id":260451,"name":"Whole Foods Market","phone":"214-342-4850","address":"8190 Park Lane, Ste 351","country":"US","state":"TX","city":"Dallas","postal":"75231"},{"lat":"32.7669048","lng":"-97.0990566","id":260452,"name":"Whole Foods Market","phone":"817-461-9362","address":"801 E Lamar Blvd","country":"US","state":"TX","city":"Arlington","postal":"76011"},{"lat":"33.0295927","lng":"-96.794998","id":260453,"name":"Whole Foods Market","phone":"972-612-6729","address":"2201 Preston Rd","country":"US","state":"TX","city":"Plano","postal":"75093"},{"lat":"29.4969793","lng":"-98.4797027","id":260454,"name":"Whole Foods Market","phone":"210-826-4676","address":"255 E Basse Rd","country":"US","state":"TX","city":"San Antonio","postal":"78209"},{"lat":"29.6001299","lng":"-95.6233709","id":260455,"name":"Whole Foods Market","phone":"281-491-5577","address":"15900 Southwest Freeway","country":"US","state":"TX","city":"Sugar Land","postal":"77479"},{"lat":"33.1299106","lng":"-96.6591208","id":260456,"name":"Whole Foods Market","phone":"972.549.4090","address":"105 Stacy Rd","country":"US","state":"Tx","city":"Fairview","postal":"75069"},{"lat":"36.1048813","lng":"-95.9731725","id":260457,"name":"Whole Foods Market","phone":"918-712-7555","address":"1401 E 41st St","country":"US","state":"OK","city":"Tulsa","postal":"74105"},{"lat":"29.9207617","lng":"-90.1176616","id":260458,"name":"Whole Foods Market","phone":"504-899-9119","address":"5600 Magazine St","country":"US","state":"LA","city":"New Orleans","postal":"70115"},{"lat":"30.4323525","lng":"-91.111206","id":260459,"name":"Whole Foods Market","phone":"225-218-0452","address":"7529 Corporate Blvd","country":"US","state":"LA","city":"Baton Rouge","postal":"70809"},{"lat":"30.0032912","lng":"-90.1594327","id":260460,"name":"Whole Foods Market","phone":"504-779-3700","address":"3420 Veterans Blvd","country":"US","state":"LA","city":"Metairie","postal":"70002"},{"lat":"29.7578913","lng":"-95.3975636","id":260461,"name":"Whole Foods Market","phone":"713-284-1260","address":"701 Waugh Dr","country":"US","state":"TX","city":"Houston","postal":"77019"},{"lat":"30.2196488","lng":"-97.8416446","id":260462,"name":"Whole Foods Market","phone":"512.358.2460","address":"4301 W William Cannon","country":"US","state":"TX","city":"Austin","postal":"78749"},{"lat":"29.6128936","lng":"-98.5090786","id":260463,"name":"Whole Foods Market","phone":"210-408-3110","address":"18403 Blanco Rd","country":"US","state":"TX","city":"San Antonio","postal":"78258"},{"lat":"29.712471","lng":"-95.7713565","id":260464,"name":"Whole Foods Market","phone":"281-769-5670","address":"6601 S Fry Rd","country":"US","state":"TX","city":"Katy","postal":"77494"},{"lat":"35.5338892","lng":"-97.5307376","id":260465,"name":"Whole Foods Market","phone":"405.879.3500","address":"6001 N Western Ave","country":"US","state":"OK","city":"Oklahoma City","postal":"73118"},{"lat":"32.9516347","lng":"-96.8206127","id":260466,"name":"Whole Foods Market","phone":"214-854-3334","address":"5100 Belt Line Road Suite 1012","country":"US","state":"Tx","city":"Addison","postal":"75254"},{"lat":"36.0306491","lng":"-95.9236654","id":260467,"name":"Whole Foods Market","phone":"918-879-0493","address":"9136 South Yale","country":"US","state":"OK","city":"Tulsa","postal":"71437"},{"lat":"30.4062692","lng":"-97.7202672","id":260468,"name":"Whole Foods Market","phone":"512-831-3981","address":"11920 Domain Dr","country":"US","state":"TX","city":"Austin","postal":"78758"},{"lat":"30.307499","lng":"-97.9376874","id":260469,"name":"Whole Foods Market","phone":"512-206-2730","address":"12601 Hill Country Blvd","country":"US","state":"TX","city":"Bee Cave","postal":"78738"},{"lat":"29.9670769","lng":"-90.0844812","id":260470,"name":"Whole Foods Market","phone":"504-434-3364","address":"300 N- BROAD ST STE- 103","country":"US","state":"LA","city":"New Orleans","postal":"70119"},{"lat":"29.9985157","lng":"-95.562061","id":260471,"name":"Whole Foods Market","phone":"281-803-6396","address":"10133 Louetta. Rd","country":"US","state":"TX","city":"Houston","postal":"77070"},{"lat":"32.8790865","lng":"-97.1554283","id":260472,"name":"Whole Foods Market","phone":"817.918.3821","address":"4801 Colleyville Blvd","country":"US","state":"TX","city":"COLLEYVILLE","postal":"76034"},{"lat":"33.0727476","lng":"-97.0847075","id":260473,"name":"Whole Foods Market","phone":"972-538-9710","address":"4041 Waller Creek","country":"US","state":"TX","city":"Highland Village","postal":"75077"},{"lat":"29.7493038","lng":"-95.462209","id":260474,"name":"Whole Foods Market","phone":"713-346-0537","address":"1700 Post Oak Blvd","country":"US","state":"TX","city":"Houston","postal":"77056"},{"lat":"34.7493978","lng":"-92.4070771","id":260475,"name":"Whole Foods Market","phone":"501-312-2326","address":"501 Bowman Rd","country":"US","state":"AR","city":"LITTLE ROCK","postal":"72211"},{"lat":"30.1610157","lng":"-92.0516888","id":260476,"name":"Whole Foods Market","phone":"337-314-9653","address":"4247 Ambassador Caffery Parkway","country":"US","state":"LA","city":"Lafayette","postal":"70508"},{"lat":"30.1695534","lng":"-95.470706","id":260477,"name":"Whole Foods Market","phone":"832-246-5600","address":"1925 Hughes Landing Blvd. Suite 100","country":"US","state":"TX","city":"WOODLANDS","postal":"77380"},{"lat":"29.7523732","lng":"-95.4999033","id":260478,"name":"Whole Foods Market","phone":"713-789-4477","address":"1407 South Voss Road","country":"US","state":"TX","city":"HOUSTON","postal":"77057"},{"lat":"32.7958611","lng":"-96.8016241","id":260479,"name":"Whole Foods Market","phone":"469-518-5814","address":"2510 McKinney Ave","country":"US","state":"TX","city":"DALLAS","postal":"75201"},{"lat":"36.1133917","lng":"-94.1460757","id":260480,"name":"Whole Foods Market","phone":"479-695-5561","address":"3425 N College Ave","country":"US","state":"AR","city":"FAYETTEVILLE","postal":"72703"},{"lat":"32.9988408","lng":"-96.6987141","id":260481,"name":"Whole Foods Market","phone":"214-273-0902","address":"1411 E Renner Road","country":"US","state":"TX","city":"RICHARDSON","postal":"75082"},{"lat":"30.3905209","lng":"-90.0861252","id":260482,"name":"Whole Foods Market","phone":"985-231-3328","address":"3450 Highway 190 Suite 8","country":"US","state":"LA","city":"MANDEVILLE","postal":"70471"},{"lat":"29.7348965","lng":"-95.5706292","id":260483,"name":"Whole Foods Market","phone":"713-784-7776","address":"11041 Westheimer Rd","country":"US","state":"TX","city":"HOUSTON","postal":"77042"},{"lat":"34.1378276","lng":"-118.147784","id":260484,"name":"Whole Foods Market","phone":"626-204-2266","address":"465 S Arroyo Pkwy","country":"US","state":"CA","city":"Pasadena","postal":"91105"},{"lat":"34.0536448","lng":"-118.4673862","id":260485,"name":"Whole Foods Market","phone":"310-826-4433","address":"11737 San Vincente Blvd","country":"US","state":"CA","city":"Los Angeles","postal":"90049"},{"lat":"34.0691848","lng":"-118.3980981","id":260486,"name":"Whole Foods Market","phone":"310-274-3360","address":"239 N Crescent Dr","country":"US","state":"CA","city":"Beverly Hills","postal":"90210"},{"lat":"33.3184402","lng":"-111.892792","id":260487,"name":"Whole Foods Market","phone":"480-821-9447","address":"2955 West Ray Rd","country":"US","state":"AZ","city":"Chandler","postal":"85226"},{"lat":"34.0701952","lng":"-118.3607698","id":260488,"name":"Whole Foods Market","phone":"323-964-6800","address":"6350 West Third St","country":"US","state":"CA","city":"Los Angeles","postal":"90036"},{"lat":"36.1577809","lng":"-115.2877396","id":260489,"name":"Whole Foods Market","phone":"702-254-8655","address":"8825 W Charleston","country":"US","state":"NV","city":"Las Vegas","postal":"89117"},{"lat":"34.1509266","lng":"-118.2460149","id":260490,"name":"Whole Foods Market","phone":"818-548-3695","address":"331 North Glendale Ave","country":"US","state":"CA","city":"Glendale","postal":"91206"},{"lat":"36.0233404","lng":"-115.0824269","id":260491,"name":"Whole Foods Market","phone":"702-361-8183","address":"100 S Green Valley Pkwy","country":"US","state":"NV","city":"Henderson","postal":"89012"},{"lat":"32.7479508","lng":"-117.1580497","id":260492,"name":"Whole Foods Market","phone":"619-294-2800","address":"711 University Ave","country":"US","state":"CA","city":"San Diego","postal":"92103"},{"lat":"34.0915196","lng":"-118.360773","id":260493,"name":"Whole Foods Market","phone":"323-848-4200","address":"7871 Santa Monica Blvd","country":"US","state":"CA","city":"Los Angeles","postal":"90046"},{"lat":"33.6963604","lng":"-117.8255884","id":260494,"name":"Whole Foods Market","phone":"714-566-7650","address":"2847 Park Ave","country":"US","state":"CA","city":"Tustin","postal":"92782"},{"lat":"21.2772953","lng":"-157.7865288","id":260495,"name":"Whole Foods Market","phone":"808-738-0829","address":"4211 Waialae Ave","country":"US","state":"HI","city":"Honolulu","postal":"96816"},{"lat":"33.543887","lng":"-117.7838495","id":260496,"name":"Whole Foods Market","phone":"949-376-7888","address":"283 BRdway St","country":"US","state":"CA","city":"Laguna Beach","postal":"92651"},{"lat":"32.8687404","lng":"-117.2306258","id":260497,"name":"Whole Foods Market","phone":"858-642-6700","address":"8825 Via La Jolla Dr","country":"US","state":"CA","city":"LaJolla","postal":"92037"},{"lat":"33.754892","lng":"-118.109253","id":260498,"name":"Whole Foods Market","phone":"562-598-8687","address":"6550 E Pacific Coast Hwy","country":"US","state":"CA","city":"Long Beach","postal":"90803"},{"lat":"36.0674448","lng":"-115.1745021","id":260499,"name":"Whole Foods Market","phone":"702-589-7711","address":"6689 Las Vegas Blvd","country":"US","state":"NV","city":"Las Vegas","postal":"89119"},{"lat":"20.8905916","lng":"-156.4643723","id":260500,"name":"Whole Foods Market","phone":"808-872-3310","address":"70 E Kaahumanu Ave Unit B","country":"US","state":"HI","city":"Kahului","postal":"96732"},{"lat":"34.0329304","lng":"-118.494706","id":260501,"name":"Whole Foods Market","phone":"310-576-4707","address":"1425 Montana Ave","country":"US","state":"CA","city":"Santa Monica","postal":"90403"},{"lat":"34.1878033","lng":"-118.8733499","id":260502,"name":"Whole Foods Market","phone":"805-777-4730","address":"740 N Moorpark Rd","country":"US","state":"CA","city":"Thousand Oaks","postal":"91360"},{"lat":"34.1510888","lng":"-118.0722072","id":260503,"name":"Whole Foods Market","phone":"626-351-5994","address":"3751 E Foothill Blvd","country":"US","state":"CA","city":"Pasadena","postal":"91107"},{"lat":"33.9067603","lng":"-118.3906263","id":260504,"name":"Whole Foods Market","phone":"310-333-1900","address":"760 S Sepulveda Blvd","country":"US","state":"CA","city":"El Segundo","postal":"90245"},{"lat":"34.2735973","lng":"-118.5549496","id":260505,"name":"Whole Foods Market","phone":"818-363-3933","address":"19340 Rinaldi St","country":"US","state":"CA","city":"Northridge","postal":"91326"},{"lat":"33.5845331","lng":"-111.9790564","id":260506,"name":"Whole Foods Market","phone":"602-569-7600","address":"10810 N Tatum Blvd","country":"US","state":"AZ","city":"Paradise Valley","postal":"85028"},{"lat":"33.847126","lng":"-118.3891143","id":260507,"name":"Whole Foods Market","phone":"310-376-6931","address":"405 N Pacific Coast Hwy","country":"US","state":"CA","city":"Redondo Beach","postal":"90277"},{"lat":"34.439222","lng":"-119.7452194","id":260508,"name":"Whole Foods Market","phone":"805-837-6959","address":"3761 State St","country":"US","state":"CA","city":"Santa Barbara","postal":"93105"},{"lat":"33.6537298","lng":"-111.9279173","id":260509,"name":"Whole Foods Market","phone":"480-515-3777","address":"7111 East Mayo Blvd","country":"US","state":"AZ","city":"Phoenix","postal":"85054"},{"lat":"34.1579231","lng":"-118.4141117","id":260510,"name":"Whole Foods Market","phone":"818-762-5548","address":"12905 Riverside Dr","country":"US","state":"CA","city":"Sherman Oaks","postal":"91423"},{"lat":"34.1517628","lng":"-118.4664986","id":260511,"name":"Whole Foods Market","phone":"818-382-3700","address":"4520 N Sepulveda Blvd","country":"US","state":"CA","city":"Sherman Oaks","postal":"91403"},{"lat":"34.0330104","lng":"-118.4812578","id":260512,"name":"Whole Foods Market","phone":"310-315-0662","address":"2201 Wilshire Blvd","country":"US","state":"CA","city":"Santa Monica","postal":"90403"},{"lat":"32.2357635","lng":"-110.9216105","id":260513,"name":"Whole Foods Market","phone":"520-795-9844","address":"3360 E Speedway Blvd","country":"US","state":"AZ","city":"Tucson","postal":"85716"},{"lat":"33.379584","lng":"-111.9297888","id":260514,"name":"Whole Foods Market","phone":"480-456-1400","address":"5120 S Rural","country":"US","state":"AZ","city":"Tempe","postal":"85282"},{"lat":"33.7915627","lng":"-118.3324521","id":260515,"name":"Whole Foods Market","phone":"310-257-8700","address":"2655 Pacific Coast Hwy","country":"US","state":"CA","city":"Torrance","postal":"90501"},{"lat":"34.1704195","lng":"-118.5412344","id":260516,"name":"Whole Foods Market","phone":"818-578-7840","address":"18700 W Ventura Blvd","country":"US","state":"CA","city":"Tarzana","postal":"91356"},{"lat":"36.1974857","lng":"-115.2501812","id":260517,"name":"Whole Foods Market","phone":"702-942-1500","address":"7250 W Lake Mead Blvd","country":"US","state":"NV","city":"Las Vegas","postal":"89128"},{"lat":"34.422956","lng":"-118.5435574","id":260518,"name":"Whole Foods Market","phone":"661-260-2377","address":"21430 Valencia Blvd","country":"US","state":"CA","city":"Valencia","postal":"91355"},{"lat":"34.0011401","lng":"-118.4698838","id":260519,"name":"Whole Foods Market","phone":"323-848-4200","address":"225 Lincoln Blvd","country":"US","state":"CA","city":"Venice","postal":"90291"},{"lat":"34.1680942","lng":"-118.5968674","id":260520,"name":"Whole Foods Market","phone":"818-610-0000","address":"21347 Ventura Blvd","country":"US","state":"CA","city":"Woodland Hills","postal":"91364"},{"lat":"34.0225552","lng":"-118.4380136","id":260521,"name":"Whole Foods Market","phone":"310-996-8840","address":"11666 National Blvd","country":"US","state":"CA","city":"Los Angeles","postal":"90064"},{"lat":"34.0200908","lng":"-118.4971334","id":260522,"name":"Whole Foods Market","phone":"310-395-4510","address":"500 Wilshire Blvd","country":"US","state":"CA","city":"Santa Monica","postal":"90403"},{"lat":"34.0612091","lng":"-118.4469257","id":260523,"name":"Whole Foods Market","phone":"310-824-0858","address":"1050 Gayley Ave","country":"US","state":"CA","city":"Los Angeles","postal":"90024"},{"lat":"33.6165418","lng":"-117.873653","id":260524,"name":"Whole Foods Market","phone":"949-999-8572","address":"415 Newport Center Dr","country":"US","state":"CA","city":"Newport Beach","postal":"92660"},{"lat":"32.2749744","lng":"-110.8743557","id":260525,"name":"Whole Foods Market","phone":"520-461-1300","address":"5555 E River Rd","country":"US","state":"AZ","city":"Tucson","postal":"85750"},{"lat":"32.9813007","lng":"-117.2519726","id":260526,"name":"Whole Foods Market","phone":"858-436-9800","address":"2600 Via de la Valle, Ste 100","country":"US","state":"Ca","city":"Del Mar","postal":"92014"},{"lat":"21.3938515","lng":"-157.7429669","id":260527,"name":"Whole Foods Market","phone":"808-263-6800","address":"629 Kailua Rd","country":"US","state":"Hi","city":"Kailua","postal":"96734"},{"lat":"33.5549115","lng":"-117.712867","id":260528,"name":"Whole Foods Market","phone":"949-900-5830","address":"23932 Aliso Creek Rd","country":"US","state":"CA","city":"Laguna Niguel","postal":"92677"},{"lat":"33.7313371","lng":"-117.991241","id":260529,"name":"Whole Foods Market","phone":"657-200-4200","address":"7881 Edinger Ave, Ste 150","country":"US","state":"CA","city":"Huntington Beach","postal":"92647"},{"lat":"35.1913631","lng":"-111.6415662","id":260530,"name":"Whole Foods Market","phone":"928-774-5747","address":"320 S- Cambridge Lane","country":"US","state":"AZ","city":"Flagstaff","postal":"86001"},{"lat":"34.5596017","lng":"-112.4837737","id":260531,"name":"Whole Foods Market","phone":"928-445-7370","address":"1112 Iron Springs Road","country":"US","state":"AZ","city":"Prescott","postal":"96305"},{"lat":"34.8636072","lng":"-111.7851163","id":260532,"name":"Whole Foods Market","phone":"928-282-6311","address":"1420 West State Route 89 A","country":"US","state":"AZ","city":"Sedona","postal":"86336"},{"lat":"35.251086","lng":"-120.6902283","id":260533,"name":"Whole Foods Market","phone":"805-785-0194","address":"1631 Froom Ranch Way","country":"US","state":"CA","city":"San Louis Obispo","postal":"93405"},{"lat":"34.2400492","lng":"-119.1791438","id":260534,"name":"Whole Foods Market","phone":"805-751-4300","address":"650 Town Center Drive","country":"US","state":"CA","city":"Oxnard","postal":"93036"},{"lat":"33.5062309","lng":"-112.0378952","id":260535,"name":"Whole Foods Market","phone":"617-902-9300","address":"4701 N- 20th Street","country":"US","state":"AZ","city":"Phoenix","postal":"85016"},{"lat":"32.3364878","lng":"-110.9783255","id":260536,"name":"Whole Foods Market","phone":"520-352-0111","address":"7133 N Oracle Rd","country":"US","state":"AZ","city":"TUCSON","postal":"85704"},{"lat":"33.7257193","lng":"-116.3977647","id":260537,"name":"Whole Foods Market","phone":"760-797-8200","address":"44-459 Town Center Way","country":"US","state":"CA","city":"PALM DESERT","postal":"92260"},{"lat":"33.9770366","lng":"-118.4173063","id":260538,"name":"Whole Foods Market","phone":"310-862-9900","address":"12746 W Jefferson Blvd.","country":"US","state":"CA","city":"Playa Vista","postal":"90094"},{"lat":"33.0441208","lng":"-117.2930445","id":260539,"name":"Whole Foods Market","phone":"760-274-1580","address":"687 S Coast Highway 101","country":"US","state":"CA","city":"Encinitas","postal":"92024"},{"lat":"34.045981","lng":"-118.2578132","id":260540,"name":"Whole Foods Market","phone":"213-873-4745","address":"788 S. Grand Avenue","country":"US","state":"CA","city":"Los Angeles","postal":"90017"},{"lat":"33.9103373","lng":"-117.8513832","id":260541,"name":"Whole Foods Market","phone":"714-528-7400","address":"3301 E Imperial Hwy","country":"US","state":"CA","city":"BREA","postal":"92823"},{"lat":"33.6446131","lng":"-117.7448154","id":260542,"name":"Whole Foods Market","phone":"949-777-8500","address":"8525 Irvine Center Dr","country":"US","state":"CA","city":"IRVINE","postal":"92618"},{"lat":"34.1028766","lng":"-118.2584507","id":260543,"name":"Whole Foods Market","phone":"323-378-3891","address":"2520 Glendale Blvd","country":"US","state":"CA","city":"Los Angeles ","postal":"90039"},{"lat":"44.0549195","lng":"-121.2664331","id":260544,"name":"Whole Foods Market","phone":"541-389-0151","address":"2610 NE Hwy 20","country":"US","state":"OR","city":"Bend","postal":"97702"},{"lat":"47.6182213","lng":"-122.1845333","id":260545,"name":"Whole Foods Market","phone":"425-462-1400","address":"888 116th Ave NE","country":"US","state":"WA","city":"Bellevue","postal":"98005"},{"lat":"47.6371975","lng":"-122.3769821","id":260546,"name":"Whole Foods Market","phone":"208-352-5440","address":"2001 W 15th Ave","country":"US","state":"WA","city":"Seattle","postal":"98119"},{"lat":"47.666112","lng":"-122.1012285","id":260547,"name":"Whole Foods Market","phone":"425-881-2600","address":"17991 NE Redmond Way","country":"US","state":"WA","city":"Redmond","postal":"98052"},{"lat":"47.8208427","lng":"-122.2733394","id":260548,"name":"Whole Foods Market","phone":"425-475-1320","address":"2808 196th St SW","country":"US","state":"WA","city":"Lynnwood","postal":"98036"},{"lat":"47.6752938","lng":"-122.3162376","id":260549,"name":"Whole Foods Market","phone":"206-985-1500","address":"1026 NE 64th St","country":"US","state":"WA","city":"Seattle","postal":"98115"},{"lat":"47.6183764","lng":"-122.3376486","id":260550,"name":"Whole Foods Market","phone":"206-621-9700","address":"2200 Westlake Ave","country":"US","state":"WA","city":"Seattle","postal":"98109"},{"lat":"45.3944296","lng":"-122.7518953","id":260551,"name":"Whole Foods Market","phone":"503-639-6500","address":"7380 SW Bridgeport Rd","country":"US","state":"OR","city":"Tigard","postal":"97224"},{"lat":"45.5487608","lng":"-122.651163","id":260552,"name":"Whole Foods Market","phone":"503-281-9805","address":"3535 NE 15th Ave","country":"US","state":"OR","city":"Portland","postal":"97212"},{"lat":"45.5368989","lng":"-122.6186228","id":260553,"name":"Whole Foods Market","phone":"503-284-2644","address":"4301 NE Sandy Blvd","country":"US","state":"OR","city":"Portland","postal":"97213"},{"lat":"45.5232601","lng":"-122.6367337","id":260554,"name":"Whole Foods Market","phone":"503-232-6601","address":"2825 East Burnside St","country":"US","state":"OR","city":"Portland","postal":"97214"},{"lat":"45.6146944","lng":"-122.5058161","id":260555,"name":"Whole Foods Market","phone":"360-253-4082","address":"815 Southeast 160th Ave","country":"US","state":"WA","city":"Vancouver","postal":"98683"},{"lat":"45.5234707","lng":"-122.6833577","id":260556,"name":"Whole Foods Market","phone":"503-525-4343","address":"1210 NW Couch St","country":"US","state":"OR","city":"Portland","postal":"97209"},{"lat":"45.4424579","lng":"-122.8027942","id":260557,"name":"Whole Foods Market","phone":"971-371-7000","address":"12220 SW SCHOLLS FERRY RD","country":"US","state":"OR","city":"TIGARD","postal":"97223"},{"lat":"45.5337398","lng":"-122.8769732","id":260558,"name":"Whole Foods Market","phone":"503-645-9200","address":"19440 NW Cornell Rd","country":"US","state":"OR","city":"Beaverton","postal":"97124"},{"lat":"47.2268468","lng":"-122.5371064","id":260559,"name":"Whole Foods Market","phone":"253-534-4500","address":"3515 Bridgeport Way West","country":"US","state":"WA","city":"University Place","postal":"98466"},{"lat":"48.7435918","lng":"-122.4612939","id":260560,"name":"Whole Foods Market","phone":"360-671-3755","address":"1030 Lakeway Dr","country":"US","state":"WA","city":"Bellingham ","postal":"98229"},{"lat":"45.415781","lng":"-122.6619761","id":260561,"name":"Whole Foods Market","phone":"503-782-4672","address":"11 S. State St ","country":"US","state":"OR","city":"Lake Oswego","postal":"97034"},{"lat":"47.6138815","lng":"-122.2042649","id":260562,"name":"Whole Foods Market","phone":"425-453-4708","address":"10200 NE 4th ST","country":"US","state":"WA","city":"Bellevue","postal":"98004"},{"lat":"38.5964722","lng":"-121.3640551","id":260563,"name":"Whole Foods Market","phone":"916-488-2800","address":"4315 Arden Way","country":"US","state":"CA","city":"Sacramento","postal":"95864"},{"lat":"37.8556007","lng":"-122.2601477","id":260564,"name":"Whole Foods Market","phone":"510-649-1333","address":"3000 Telegraph Ave","country":"US","state":"CA","city":"Berkeley","postal":"94705"},{"lat":"36.8090633","lng":"-119.8056526","id":260565,"name":"Whole Foods Market","phone":"559-241-0300","address":"650 West Shaw Ave","country":"US","state":"CA","city":"Fresno","postal":"93704"},{"lat":"37.8126415","lng":"-122.2611455","id":260566,"name":"Whole Foods Market","phone":"510-834-9800","address":"230 Bay Place","country":"US","state":"CA","city":"Oakland","postal":"94612"},{"lat":"37.8962985","lng":"-122.5358603","id":260567,"name":"Whole Foods Market","phone":"415-381-1200","address":"414 Miller Ave","country":"US","state":"CA","city":"Mill Valley","postal":"94941"},{"lat":"37.9038238","lng":"-122.5225467","id":260568,"name":"Whole Foods Market","phone":"415-381-3900","address":"731 East Blithedale Ave","country":"US","state":"CA","city":"Mill Valley","postal":"94941"},{"lat":"38.1056742","lng":"-122.5654623","id":260569,"name":"Whole Foods Market","phone":"415-878-0455","address":"790 Delong Ave","country":"US","state":"CA","city":"Novato","postal":"94945"},{"lat":"38.32344","lng":"-122.306267","id":260570,"name":"Whole Foods Market","phone":"707-224-6300","address":"3682 Bel Aire Plaza","country":"US","state":"CA","city":"Napa","postal":"94558"},{"lat":"37.7617459","lng":"-121.9612469","id":260571,"name":"Whole Foods Market","phone":"925-355-9000","address":"100 Sunset Dr","country":"US","state":"CA","city":"San Ramon","postal":"94583"},{"lat":"39.4706164","lng":"-119.788144","id":260572,"name":"Whole Foods Market","phone":"775-852-8046","address":"6139 South Virginia St","country":"US","state":"NV","city":"Reno","postal":"89502"},{"lat":"38.7673926","lng":"-121.2672557","id":260573,"name":"Whole Foods Market","phone":"916-781-5300","address":"1001 Galleria Blvd","country":"US","state":"CA","city":"Roseville","postal":"95678"},{"lat":"38.4035374","lng":"-122.8237638","id":260574,"name":"Whole Foods Market","phone":"707-829-9801","address":"6910 McKinley St","country":"US","state":"CA","city":"Sebastopol","postal":"95472"},{"lat":"38.2914216","lng":"-122.4625843","id":260575,"name":"Whole Foods Market","phone":"707-938-8500","address":"201 W Napa St","country":"US","state":"CA","city":"Sonoma","postal":"95476"},{"lat":"38.2411652","lng":"-122.6344906","id":260576,"name":"Whole Foods Market","phone":"707-762-9352","address":"621 E Washington","country":"US","state":"CA","city":"Petaluma","postal":"94952"},{"lat":"37.9707147","lng":"-122.5172562","id":260577,"name":"Whole Foods Market","phone":"415-451-6333","address":"340 3rd St","country":"US","state":"CA","city":"San Rafael","postal":"94901"},{"lat":"38.4423745","lng":"-122.6748622","id":260578,"name":"Whole Foods Market","phone":"707-575-7915","address":"1181 Yulupa Ave","country":"US","state":"CA","city":"Santa Rosa","postal":"95405"},{"lat":"37.8926878","lng":"-122.0553114","id":260579,"name":"Whole Foods Market","phone":"925-274-9700","address":"1333 East Newell Ave","country":"US","state":"CA","city":"Walnut Creek","postal":"94596"},{"lat":"38.458116","lng":"-122.7316418","id":260580,"name":"Whole Foods Market","phone":"707-542-7411","address":"390 Coddingtown Mall","country":"US","state":"CA","city":"Santa Rosa","postal":"95401"},{"lat":"38.5411191","lng":"-121.7409417","id":260581,"name":"Whole Foods Market","phone":"530.750.2266","address":"500 First St","country":"US","state":"CA","city":"Davis","postal":"95616"},{"lat":"37.8934422","lng":"-122.1171836","id":260582,"name":"Whole Foods Market","phone":"925-284-5305","address":"3502 Mt Diablo Blvd","country":"US","state":"CA","city":"Lafayette","postal":"84549"},{"lat":"37.555007","lng":"-121.9849734","id":260583,"name":"Whole Foods Market","phone":"510-401-5880","address":"3111 Mowry Avenue","country":"US","state":"CA","city":"Fremont","postal":"94538"},{"lat":"37.8808503","lng":"-122.2976666","id":260584,"name":"Whole Foods Market","phone":"510-809-8293","address":"1025 Gilman Street","country":"US","state":"CA","city":"Berkeley","postal":"94710"},{"lat":"38.6479654","lng":"-121.1207604","id":260585,"name":"Whole Foods Market","phone":"916-984-8500","address":"270 Palladio Parkway","country":"US","state":"CA","city":"Folsom","postal":"95630"},{"lat":"37.7057644","lng":"-121.8898424","id":260586,"name":"Whole Foods Market","phone":"925-452-2226","address":"5200 Dublin Blvd.","country":"US","state":"CA","city":"DUBLIN","postal":"94568"},{"lat":"37.4423893","lng":"-122.1595673","id":260587,"name":"Whole Foods Market","phone":"650-326-8676","address":"774 Emerson St","country":"US","state":"CA","city":"Palo Alto","postal":"94301"},{"lat":"37.2928502","lng":"-121.9304605","id":260588,"name":"Whole Foods Market","phone":"408-371-5000","address":"1690 S Bascom Ave","country":"US","state":"CA","city":"Campbell","postal":"95008"},{"lat":"37.789959","lng":"-122.423223","id":260589,"name":"Whole Foods Market","phone":"415-674-0500","address":"1765 California St","country":"US","state":"CA","city":"San Francisco","postal":"94109"},{"lat":"37.3988859","lng":"-122.1107103","id":260590,"name":"Whole Foods Market","phone":"650-559-0300","address":"4800 El Camino Real","country":"US","state":"CA","city":"Los Altos","postal":"94022"},{"lat":"37.236096","lng":"-121.9614978","id":260591,"name":"Whole Foods Market","phone":"408-358-4434","address":"15980 Los Gatos Blvd","country":"US","state":"CA","city":"Los Gatos","postal":"95032"},{"lat":"37.7813029","lng":"-122.399853","id":260592,"name":"Whole Foods Market","phone":"415-618-0066","address":"399 4th Street","country":"US","state":"CA","city":"San Francisco","postal":"94107"},{"lat":"37.332174","lng":"-121.9048135","id":260593,"name":"Whole Foods Market","phone":"408-207-1126","address":"777 The Alameda","country":"US","state":"CA","city":"SAN JOSE","postal":"95126"},{"lat":"36.9742817","lng":"-121.9635507","id":260594,"name":"Whole Foods Market","phone":"831-465-2208","address":"1710 41st Ave","country":"US","state":"CA","city":"Capitola","postal":"95010"},{"lat":"36.5852606","lng":"-121.8968208","id":260595,"name":"Whole Foods Market","phone":"831-333-1600","address":"800 Del Monte Center","country":"US","state":"CA","city":"Monterey","postal":"93940"},{"lat":"37.7520043","lng":"-122.4309341","id":260596,"name":"Whole Foods Market","phone":"415-282-4700","address":"3950 24th St","country":"US","state":"CA","city":"San Francisco","postal":"94114"},{"lat":"37.76443","lng":"-122.4030318","id":260597,"name":"Whole Foods Market","phone":"415-552-1155","address":"450 Rhode Island St","country":"US","state":"CA","city":"San Francisco","postal":"94103"},{"lat":"37.4822993","lng":"-122.2316749","id":260598,"name":"Whole Foods Market","phone":"650-367-1400","address":"1250 Jefferson Ave","country":"US","state":"CA","city":"Redwood City","postal":"94062"},{"lat":"37.5442835","lng":"-122.2921747","id":260599,"name":"Whole Foods Market","phone":"650-358-6900","address":"1010 Park Place","country":"US","state":"CA","city":"San Mateo","postal":"94403"},{"lat":"37.3236316","lng":"-122.0397419","id":260600,"name":"Whole Foods Market","phone":"408-257-7000","address":"20955 Stevens Creek Blvd","country":"US","state":"CA","city":"Cupertino","postal":"95014"},{"lat":"36.9788238","lng":"-122.0145884","id":260601,"name":"Whole Foods Market","phone":"831-426-9901","address":"911 Soquel Ave","country":"US","state":"CA","city":"Santa Cruz","postal":"95062"},{"lat":"37.7693642","lng":"-122.4536005","id":260602,"name":"Whole Foods Market","phone":"415-876-6740","address":"690 Stanyan St","country":"US","state":"CA","city":"San Francisco","postal":"94117"},{"lat":"37.7238702","lng":"-122.4546242","id":260603,"name":"Whole Foods Market","phone":"415.333.7400","address":"1150 Ocean Ave","country":"US","state":"CA","city":"San Francisco","postal":"94112"},{"lat":"37.2494215","lng":"-121.8766598","id":260604,"name":"Whole Foods Market","phone":"408-266-3700","address":"1146 Blossom Hill Rd","country":"US","state":"CA","city":"San Jose","postal":"95118"},{"lat":"37.7683534","lng":"-122.4271397","id":260605,"name":"Whole Foods Market","phone":"415-626-1430","address":"2001 Market Street","country":"US","state":"CA","city":"San Francisco","postal":"94114"},{"lat":"37.3807339","lng":"-121.9750147","id":260606,"name":"Whole Foods Market","phone":"408-562-9162","address":"2732 Augustine Dr Suite 1600","country":"US","state":"CA","city":"Santa Clara ","postal":"95054"},{"lat":"34.0045673","lng":"-81.206182","id":260607,"name":"14 Carrot Whole Foods","phone":"8053592920","address":"5300 Sunset Blvd","country":"US","state":"SC","city":"Lexington","postal":"29072"},{"lat":"36.1921772","lng":"-119.3430046","id":260608,"name":"21-15-9 Gear","phone":"5596235241","address":"1526 S. K Street","country":"United States","state":"CA","city":"Tulare","postal":"93277"},{"lat":"33.9096809","lng":"-117.449215","id":260609,"name":"91 Nutrition","phone":"9519779999","address":"9901 Indiana Ave","country":"US","state":"CA","city":"Riverside","postal":"92503"},{"lat":"29.9982955","lng":"-95.1719442","id":260610,"name":"A Gift of Health","phone":"2815404372","address":"7060 FM 1960 Road East","country":"United States","state":"TX","city":"Humble","postal":"77346"},{"lat":"40.768179","lng":"-73.956153","id":260611,"name":"A Matter of Health INC","phone":"212-396-4500","address":"1347 First Avenue","country":"United States","state":"NY","city":"New York","postal":"10021"},{"lat":"38.2449111","lng":"-122.6299372","id":260612,"name":"A New Leaf Nutrition","phone":"707.849.3569","address":"1197 East Washington","country":"United States","state":"CA","city":"Petaluma","postal":"94952"},{"lat":"28.0785055","lng":"-82.5081769","id":260613,"name":"Abby's Health &amp; Nutrition","phone":"(813) 265-4951","address":"14374 N Dale Mabry Hwy","country":"United States","state":"FL","city":"Tampa","postal":"33618"},{"lat":"33.8857673","lng":"-98.5248687","id":260614,"name":"Abners Nutrition Center LLC","phone":"9407661371","address":"2327 Kell Blvd","country":"United States","state":"TX","city":"Wichita Falls","postal":"76308"},{"lat":"35.1667719","lng":"-84.8818048","id":260615,"name":"Abundant Living","phone":"423 614 7885","address":"855 Keith St","country":"United States","state":"TN","city":"Cleveland","postal":"37311"},{"lat":"26.042242","lng":"-80.153796","id":260616,"name":"Ada's Natural Foods Market","phone":"239-9399-9600","address":"3800 North 23th Way","country":"United States","state":"FL","city":"Hollywood","postal":"33020"},{"lat":"45.3973868","lng":"-122.7341077","id":260617,"name":"Afterglow Day Spa ","phone":"5033815660","address":"17777 pilkington rd ","country":"United States","state":"OR","city":"Lake Oswego ","postal":"97035"},{"lat":"36.0913213","lng":"-95.8897794","id":260618,"name":"Akin's and Chamberlins","phone":"918-664-2136","address":"7807 East 51st. St.","country":"United States","state":"OK","city":"Tulsa","postal":"74145"},{"lat":"35.9896717","lng":"-95.8854585","id":260619,"name":"Akin's Natural Foods - Bixby","phone":"9186642136","address":"12003 S. Memorial Dr.","country":"United States","state":"OK","city":"Bixby","postal":"74008"},{"lat":"40.8144792","lng":"-96.6264796","id":260620,"name":"Akin's Natural Foods - Lincoln","phone":"918-664-2136","address":"6900 O St","country":"United States","state":"NE","city":"Lincoln","postal":"68510"},{"lat":"35.535457","lng":"-97.566759","id":260621,"name":"Akin's Natural Foods - Mayfair","phone":"918-664-2136","address":"2924 NW 63rd St.","country":"United States","state":"OK","city":"Oklahoma City","postal":"73116"},{"lat":"36.1195468","lng":"-95.9388051","id":260622,"name":"Akin's Natural Foods - Newport","phone":"918-664-2136","address":"3321 E 31st. St.","country":"United States","state":"OK","city":"Tulsa","postal":"74135"},{"lat":"35.6085315","lng":"-97.5539615","id":260623,"name":"Akin's Natural Foods - OKC North","phone":"918-664-2136","address":"2370 W Memorial Rd.","country":"United States","state":"OK","city":"Oklahoma City","postal":"73134"},{"lat":"41.2334897","lng":"-96.0435551","id":260624,"name":"Akin's Natural Foods - Omaha","phone":"918-664-2136","address":"8409 West Center Rd.","country":"United States","state":"NE","city":"Omaha","postal":"68154"},{"lat":"36.3348555","lng":"-94.1761231","id":260625,"name":"Akin's Natural Foods - Rogers","phone":"918-664-2136","address":"4019 W. Walnut","country":"United States","state":"AR","city":"Rogers","postal":"72756"},{"lat":"37.1585349","lng":"-93.2729127","id":260626,"name":"Akin's Natural Foods - Springfield","phone":"918-664-2136","address":"1344 E. Battlefield St.","country":"United States","state":"MO","city":"Springfield","postal":"65804"},{"lat":"39.014136","lng":"-95.714995","id":260627,"name":"Akin's Natural Foods - Topeka","phone":"918-664-2136","address":"2913 SW 29th St.","country":"United States","state":"KS","city":"Topeka","postal":"66614"},{"lat":"42.1968974","lng":"-88.1121828","id":260628,"name":"All Ways Healthy","phone":"847-438-9200","address":"123 S Rand Rd.","country":"United States","state":"IL","city":"Lake Zurich","postal":"60047"},{"lat":"47.6483067","lng":"-122.3232308","id":260629,"name":"Alliance Chiropractic and Healing Arts","phone":"206 632 5500","address":"2946 Eastlake Ave E.","country":"United States","state":"WA","city":"Seattle","postal":"98102"},{"lat":"26.2008457","lng":"-81.7996904","id":260630,"name":"allure et beaute salon and day spa","phone":"239 261 3929","address":"4444 Tamiami Trail North","country":"United States","state":"FL","city":"Naples","postal":"34103"},{"lat":"41.4827483","lng":"-71.3099053","id":260631,"name":"aMarket","phone":"410 846 8137","address":"181 Bellevue Avenue","country":"United States","state":"RI","city":"Newport","postal":"2840"},{"lat":"42.966785","lng":"-71.4517421","id":260632,"name":"aMarket","phone":"603 641 1829 x 114","address":"125 Loring St.","country":"United States","state":"NH","city":"Manchester","postal":"3103"},{"lat":"32.7155588","lng":"-96.8302","id":260633,"name":"Ann's Health Food Center","phone":"214-942-9483","address":"2634 S. Zang Blvd","country":"United States","state":"TX","city":"Dallas","postal":"75224"},{"lat":"34.8443344","lng":"-92.2315326","id":260634,"name":"Ann's Health Food Store - Sherwood","phone":"501 835 6415","address":"9800 Highway 107","country":"United States","state":"AR","city":"Sherwood","postal":"72120"},{"lat":"37.2130083","lng":"-80.399514","id":260635,"name":"Annie Kay's Main Street Market","phone":"540-552-6870","address":"1531 South Main Street","country":"United States","state":"VA","city":"Blacksburg","postal":"24060"},{"lat":"32.4237361","lng":"-96.839666","id":260636,"name":"Anns Health Food Center - Waxahachie","phone":"9729231400","address":"2305 N. Highway 77","country":"United States","state":"TX","city":"Waxahachie","postal":"75165"},{"lat":"35.0452106","lng":"-78.9228527","id":260637,"name":"Applecrate Natural","phone":"910-853-4444","address":"2711 Raeford Rd.","country":"United States","state":"NC","city":"Fayetteville","postal":"28303"},{"lat":"36.9817251","lng":"-121.9107053","id":260638,"name":"Aptos Natural Foods","phone":"(831) 685-3334","address":"7506 Soquel Dr","country":"United States","state":"CA","city":"Aptos","postal":"95003"},{"lat":"33.6806176","lng":"-112.2238816","id":260639,"name":"Aspen Chiropractic and Wellness","phone":"623-572-9200","address":"21681 N. 77th Ave","country":"United States","state":"AZ","city":"Peoria","postal":"85382"},{"lat":"43.6383682","lng":"-79.418437","id":260640,"name":"Athletes Kitchen","phone":"4165160101","address":"171 East Liberty Street","country":"Canada","state":"ON","city":"Toronto","postal":"M6K 3P6"},{"lat":"41.2539872","lng":"-95.8513606","id":260641,"name":"Babmi's Green Acres Natural Foods, Mkt, Inc. DBA Bambi's Green Acres Natural Market","phone":"712-323-5799","address":"805 South Main Street #1","country":"United States","state":"IA","city":"Council Bluff","postal":"5150"},{"lat":"41.1368263","lng":"-73.9902749","id":260642,"name":"Back to Earth - New City","phone":"845-634-3511","address":"306 South Main Street","country":"United States","state":"NY","city":"New City","postal":"10956"},{"lat":"41.8173483","lng":"-73.0917879","id":260643,"name":"Back to Earth - Torrington","phone":"(860) 496-1915","address":"1315 East Main Street","country":"United States","state":"CT","city":"Torrington","postal":"6790"},{"lat":"40.7795809","lng":"-74.6971708","id":260644,"name":"Back to Nature","phone":"9088797555","address":"231 US Highway 206 S.","country":"United States","state":"NJ","city":"Chester","postal":"7930"},{"lat":"37.5784108","lng":"-122.3467046","id":260645,"name":"BARE Bowls","phone":"6505205875","address":"240 Park Road","country":"United States","state":"CA","city":"Burlingame","postal":"94010"},{"lat":"30.079675","lng":"-94.167308","id":260646,"name":"Basic Foods ","phone":"409 861 4424","address":"6220 Phelan Blvd.","country":"United States","state":"TX","city":"Beaumont","postal":"77706"},{"lat":"42.7177058","lng":"-89.0010102","id":260647,"name":"Basics Cooperative","phone":"(608) 754-3925","address":"1711 Lodge Drive","country":"United States","state":"WI","city":"Janesville","postal":"53545"},{"lat":"40.4977865","lng":"-74.8539693","id":260648,"name":"Basil Bandwagon","phone":"9087885737","address":"276 Highway 202\/31","country":"United States","state":"NJ","city":"Flemington","postal":"8822"},{"lat":"34.2428813","lng":"-116.9087014","id":260649,"name":"Beautiful Remedy","phone":"9097867365","address":"PO BOX 6183","country":"United States","state":"CA","city":"Big Bear Lake","postal":"92315"},{"lat":"41.4413059","lng":"-71.4885841","id":260650,"name":"Belmont Market","phone":"401-783-4656","address":"600 Kingstown Road","country":"United States","state":"RI","city":"Wakefield","postal":"2879"},{"lat":"32.5325445","lng":"-92.6406396","id":260651,"name":"Better Living Market","phone":"318.254.0761","address":"301 North Monroe Street","country":"United States","state":"LA","city":"Ruston","postal":"71270"},{"lat":"37.9952525","lng":"-105.698836","id":260652,"name":"Bistro 121 ltd","phone":"7199377770","address":"121 Galena Ave","country":"United States","state":"CO","city":"Crestone","postal":"81131"},{"lat":"38.7747267","lng":"-90.3036694","id":260653,"name":"Blue Sky Nutrition","phone":"(314) 837-7290","address":"8 Grandview Plaza Shopping Center","country":"United States","state":"MO","city":"Florissant","postal":"63033"},{"lat":"40.5882048","lng":"-73.6672952","id":260654,"name":"Bob's Natural Foods","phone":"5168898955","address":"104 W. Park Ave","country":"United States","state":"NY","city":"Long Beach","postal":"11561"},{"lat":"38.4411569","lng":"-105.233695","id":260655,"name":"Bodyline Health &amp; Nutritiom","phone":"7194293734","address":"312 S. 9th St","country":"United States","state":"CO","city":"Canon city","postal":"81212"},{"lat":"43.6227895","lng":"-116.1982543","id":260656,"name":"Boise Co-op","address":"888 W. Fort St.","city":"Boise","postal":"83702"},{"lat":"35.3909047","lng":"-80.5470985","id":260657,"name":"Braffords Greenhouse","phone":"704-913-7376","address":"217 Old Airport Rd","country":"United States","state":"NC","city":"Concord","postal":"28025"},{"lat":"41.658721","lng":"-91.5316592","id":260658,"name":"Bread Garden Market","phone":"319-354-4246","address":"225 South Linn Street","country":"United States","state":"IA","city":"Iowa City","postal":"52240"},{"lat":"39.23463","lng":"-121.052638","id":260659,"name":"BriarPatch Co-op Market","phone":"(530) 272-5333","address":"290 Sierra College Dr., Suite A","country":"United States","state":"CA","city":"Grass Valley","postal":"95945"},{"lat":"-28.027828","lng":"153.4297246","id":260660,"name":"Brio Food Group","phone":"431333879","address":"SHop 5 2623 Gold Coast Highway","country":"Australia","state":"Queensland","city":"Broadbeach","postal":"4218"},{"lat":"45.5239903","lng":"-122.6598808","id":260661,"name":"Broth Bar by Salt, Fire &amp; Time","phone":"3309043359","address":"115 NE 6th Ave","country":"United States","state":"OR","city":"Portland","postal":"97232"},{"lat":"41.918902","lng":"-88.2101651","id":260662,"name":"Bubocoffee ","phone":"6308810899","address":"2013 Fransiscan way","country":"United States","state":"IL","city":"West chicago","postal":"60185"},{"lat":"27.3234985","lng":"-82.4936652","id":260663,"name":"Bulk N Natural Foodstore","phone":"941-957-0595","address":"3737 Bahia Vista St # 1","country":"United States","state":"FL","city":"Sarasota","postal":"34232"},{"lat":"42.3889824","lng":"-71.1189226","id":260664,"name":"Cambridge Naturals DBA Cambridge Natural Foods, Inc.","phone":"617 492 4452","address":"23 White Street","country":"United States","state":"MA","city":"Cambridge","postal":"2140"},{"lat":"41.5999334","lng":"-93.6726551","id":260665,"name":"Campbell's Nutrition Center","phone":"515-277-6351","address":"4040 University","country":"United States","state":"IA","city":"Des Moines","postal":"50311"},{"lat":"41.6586578","lng":"-70.2733896","id":260666,"name":"Cape Cod Nutrition Corner","phone":"5087755697","address":"75 Iyannough Rd","country":"United States","state":"MA","city":"Hyannis","postal":"2601"},{"lat":"27.911946","lng":"-82.033153","id":260667,"name":"Casa Azteca","phone":"8132633674","address":"2476 Riverwood Dr","country":"United States","state":"FL","city":"Mulberry","postal":"33860"},